{
  "2767333569": {
    "lat": 37.7951195,
    "lng": -122.3952007,
    "extracted_address": "Justin Herman Plaza",
    "formatted_address": "Embarcadero Plaza, Market St &, Steuart St, San Francisco, CA 94105, USA",
    "types": [
      "establishment",
      "park",
      "point_of_interest"
    ],
    "source": "geocoded",
    "description": "Justin Herman Plaza"
  },
  "8474673006": {
    "lat": 10.7684861,
    "lng": 106.6927344,
    "extracted_address": "Ph\u1ea1m Ng\u0169 L\u00e3o Street",
    "formatted_address": "Ph\u1ea1m Ng\u0169 L\u00e3o, Qu\u1eadn 1, H\u1ed3 Ch\u00ed Minh, Vietnam",
    "types": [
      "route"
    ],
    "source": "geocoded",
    "description": "Ph\u1ea1m Ng\u0169 L\u00e3o Street"
  },
  "7237017308": {
    "lat": 40.7092649,
    "lng": -74.011262,
    "extracted_address": "Zucotti Park",
    "formatted_address": "Zuccotti Park, Cedar St, New York, NY 10006, USA",
    "types": [
      "establishment",
      "park",
      "point_of_interest",
      "tourist_attraction"
    ],
    "source": "geocoded",
    "description": "Zucotti Park"
  },
  "3007603560": {
    "lat": 37.7709327,
    "lng": -122.43979,
    "extracted_address": "Haight Street",
    "formatted_address": "Haight St, San Francisco, CA, USA",
    "types": [
      "route"
    ],
    "source": "geocoded",
    "description": "Haight Street"
  },
  "6875708677": {
    "lat": 52.5186832,
    "lng": 13.3760815,
    "extracted_address": "Reichstagskuppel",
    "formatted_address": "Reichstag Building, Platz d. Republik 1, 10557 Berlin, Germany",
    "types": [
      "establishment",
      "point_of_interest",
      "tourist_attraction"
    ],
    "source": "geocoded",
    "description": "Reichstagskuppel"
  },
  "1461522249": {
    "lat": 34.0458857,
    "lng": -118.5648608,
    "extracted_address": "This is the Inner Peristyle Garden of the Getty Villa in Pacific Palisades, Los Angeles (17985 Pacific Coast Highway, Malibu, CA 90272).",
    "formatted_address": "17985 Pacific Coast Hwy, Pacific Palisades, CA 90272, USA",
    "types": [
      "establishment",
      "museum",
      "point_of_interest",
      "tourist_attraction"
    ],
    "source": "geocoded",
    "description": "Inner Peristyle Garden"
  },
  "9309870009": {
    "lat": 51.0532335,
    "lng": 3.726506,
    "extracted_address": "St. Bavo\u2019s Cathedral",
    "formatted_address": "Sint-Baafsplein 1, 9000 Gent, Belgium",
    "types": [
      "church",
      "establishment",
      "place_of_worship",
      "point_of_interest",
      "tourist_attraction"
    ],
    "source": "geocoded",
    "description": "St. Bavo\u2019s Cathedral"
  },
  "3905584273": {
    "lat": 25.0329636,
    "lng": 121.5654268,
    "extracted_address": "Taipei",
    "formatted_address": "Taipei City, Taiwan",
    "types": [
      "administrative_area_level_1",
      "political"
    ],
    "source": "geocoded",
    "description": "Taipei"
  },
  "390524954": {
    "lat": 60.1676653,
    "lng": 24.9536778,
    "extracted_address": "Kauppatori",
    "formatted_address": "Etel\u00e4ranta, 00170 Helsinki, Finland",
    "types": [
      "cafe",
      "establishment",
      "food",
      "point_of_interest",
      "restaurant",
      "tourist_attraction"
    ],
    "source": "geocoded",
    "description": "Kauppatori"
  },
  "3974322793": {
    "lat": 38.3606736,
    "lng": -75.5993692,
    "extracted_address": "Salisbury, MD",
    "formatted_address": "Salisbury, MD, USA",
    "types": [
      "locality",
      "political"
    ],
    "source": "geocoded",
    "description": "Salisbury, MD"
  },
  "7692193950": {
    "lat": 47.3768866,
    "lng": 8.541694,
    "extracted_address": "Z\u00fcrich",
    "formatted_address": "Z\u00fcrich, Switzerland",
    "types": [
      "locality",
      "political"
    ],
    "source": "geocoded",
    "description": "Z\u00fcrich"
  },
  "218049846": {
    "lat": 47.6094076,
    "lng": -122.3418358,
    "extracted_address": "Pike Place Market",
    "formatted_address": "85 Pike St, Seattle, WA 98101, USA",
    "types": [
      "establishment",
      "food",
      "grocery_or_supermarket",
      "point_of_interest",
      "restaurant",
      "store",
      "tourist_attraction"
    ],
    "source": "geocoded",
    "description": "Pike Place Market"
  },
  "5548423806": {
    "lat": 40.4093231,
    "lng": -3.7120463,
    "extracted_address": "Calle Calatrava",
    "formatted_address": "C. de Calatrava, Centro, 28005 Madrid, Spain",
    "types": [
      "route"
    ],
    "source": "geocoded",
    "description": "Calle Calatrava"
  },
  "2088763517": {
    "lat": 22.3370342,
    "lng": 114.17272,
    "extracted_address": "City University of Hong Kong",
    "formatted_address": "83 Tat Chee Ave, Kowloon Tong, Hong Kong",
    "types": [
      "establishment",
      "point_of_interest",
      "school",
      "university"
    ],
    "source": "geocoded",
    "description": "City University of Hong Kong"
  },
  "822984583": {
    "lat": 51.159081,
    "lng": -2.583461,
    "extracted_address": "Worthy Farm",
    "formatted_address": "Worthy Farm, Worthy Ln, Pilton, Shepton Mallet BA4 4BY, UK",
    "types": [
      "premise",
      "street_address"
    ],
    "source": "geocoded",
    "description": "Worthy Farm"
  },
  "10537366026": {
    "lat": -8.348291699999999,
    "lng": 116.0384335,
    "extracted_address": "Gili Trawangan",
    "formatted_address": "Gili Trawangan, Gili Indah, Pemenang, North Lombok Regency, West Nusa Tenggara, Indonesia",
    "types": [
      "establishment",
      "natural_feature"
    ],
    "source": "geocoded",
    "description": "Gili Trawangan"
  },
  "2321003896": {
    "lat": 39.9999093,
    "lng": 116.3150572,
    "extracted_address": "Haidian District",
    "formatted_address": "Haidian District, Beijing, China",
    "types": [
      "political",
      "sublocality",
      "sublocality_level_1"
    ],
    "source": "geocoded",
    "description": "Haidian District"
  },
  "2738387084": {
    "lat": 51.1749272,
    "lng": 2.782715,
    "extracted_address": "Westende Beach",
    "formatted_address": "Zonnelaan 300, 8430 Middelkerke, Belgium",
    "types": [
      "establishment",
      "point_of_interest"
    ],
    "source": "geocoded",
    "description": "Westende Beach"
  },
  "345199822": {
    "lat": 6.6666004,
    "lng": -1.6162709,
    "extracted_address": "Kumasi",
    "formatted_address": "Kumasi, Ghana",
    "types": [
      "locality",
      "political"
    ],
    "source": "geocoded",
    "description": "Kumasi"
  },
  "9640910501": {
    "lat": 42.6555851,
    "lng": -83.4143921,
    "extracted_address": "Graham Road",
    "formatted_address": "Graham St, Waterford Township, MI 48327, USA",
    "types": [
      "route"
    ],
    "source": "geocoded",
    "description": "Graham Road"
  },
  "325392247": {
    "lat": 40.3119922,
    "lng": -105.6460112,
    "extracted_address": "Bear Lake Trailhead",
    "formatted_address": "Bear Lake Trailhead, Bear Lake Rd, Estes Park, CO 80517, USA",
    "types": [
      "establishment",
      "park",
      "point_of_interest",
      "tourist_attraction"
    ],
    "source": "geocoded",
    "description": "Bear Lake Trailhead"
  },
  "486640035": {
    "lat": 37.3860469,
    "lng": -5.9920444,
    "extracted_address": "Plaza Virgen de los Reyes",
    "formatted_address": "Pl. Virgen de los Reyes, Casco Antiguo, 41004 Sevilla, Spain",
    "types": [
      "route"
    ],
    "source": "geocoded",
    "description": "Plaza Virgen de los Reyes"
  },
  "4881727444": {
    "lat": 33.98706,
    "lng": -118.4755251,
    "extracted_address": "Venice Skate Park",
    "formatted_address": "1800 Ocean Front Walk, Venice, CA 90291, USA",
    "types": [
      "establishment",
      "point_of_interest",
      "tourist_attraction"
    ],
    "source": "geocoded",
    "description": "Venice Skate Park"
  },
  "266092150": {
    "lat": 49.815273,
    "lng": 6.129582999999999,
    "extracted_address": "Porsche Centre Luxembourg",
    "formatted_address": "Luxembourg",
    "types": [
      "country",
      "political"
    ],
    "source": "geocoded",
    "description": "Porsche Centre Luxembourg"
  },
  "265352838": {
    "lat": 33.994091,
    "lng": -118.4527302,
    "extracted_address": "Venice Beach",
    "formatted_address": "Venice, Los Angeles, CA, USA",
    "types": [
      "neighborhood",
      "political"
    ],
    "source": "geocoded",
    "description": "Venice Beach"
  },
  "4937975485": {
    "lat": 50.9028189,
    "lng": -0.5145246,
    "extracted_address": "South Downs Way",
    "formatted_address": "S Downs Way, United Kingdom",
    "types": [
      "route"
    ],
    "source": "geocoded",
    "description": "South Downs Way"
  },
  "5314749745": {
    "lat": 40.7579747,
    "lng": -73.9855426,
    "extracted_address": "Times Square",
    "formatted_address": "Manhattan, NY 10036, USA",
    "types": [
      "establishment",
      "point_of_interest",
      "tourist_attraction"
    ],
    "source": "geocoded",
    "description": "Times Square"
  },
  "1301398204": {
    "lat": 41.9254665,
    "lng": 8.7381252,
    "extracted_address": "Cour Napol\u00e9on",
    "formatted_address": "Cr Napol\u00e9on, Ajaccio, France",
    "types": [
      "route"
    ],
    "source": "geocoded",
    "description": "Cour Napol\u00e9on"
  },
  "352380518": {
    "lat": 36.0588606,
    "lng": -112.1282399,
    "extracted_address": "Reasoning:\n1. The layered red-and-cream rock formations and the vast canyon carved by a river identify this as the Grand Canyon.\n2. The vantage point overlooks a broad expanse of canyon with near-vertical walls\u2014typical of the South Rim viewpoints.\n3. The vegetation (pi\u00f1on/juniper) and lighting suggest a popular overlook close to the park\u2019s main visitor facilities.\n4. Among South Rim viewpoints, Mather Point offers a similarly wide panorama and is one of the most photographed spots.\n\nAnswer:\nMather Point, South Rim, Grand Canyon National Park, Arizona, USA.",
    "formatted_address": "Rim Trail, Grand Canyon Village, AZ 86023, USA",
    "types": [
      "route"
    ],
    "source": "geocoded",
    "description": "Mather Point"
  },
  "9546093889": {
    "lat": 52.1673737,
    "lng": -9.8103369,
    "extracted_address": "R561",
    "formatted_address": "R561, Co. Kerry, Ireland",
    "types": [
      "route"
    ],
    "source": "geocoded",
    "description": "R561"
  },
  "4716047404": {
    "lat": 43.6560612,
    "lng": -79.380301,
    "extracted_address": "Yonge\u2013Dundas Square",
    "formatted_address": "1 Dundas St E, Toronto, ON M5B 2R8, Canada",
    "types": [
      "establishment",
      "point_of_interest"
    ],
    "source": "geocoded",
    "description": "Yonge\u2013Dundas Square"
  },
  "4101969711": {
    "lat": 40.7358633,
    "lng": -73.9910835,
    "extracted_address": "Union Square",
    "formatted_address": "Union Square, New York, NY 10003, USA",
    "types": [
      "neighborhood",
      "political"
    ],
    "source": "geocoded",
    "description": "Union Square"
  },
  "6292826": {
    "lat": 40.8381465,
    "lng": 14.2589849,
    "extracted_address": "Stazione Marittima",
    "formatted_address": "Stazione Marittima, Stazione Marittima Molo Angioino, 80133 Napoli NA, Italy",
    "types": [
      "establishment",
      "point_of_interest",
      "transit_station"
    ],
    "source": "geocoded",
    "description": "Stazione Marittima"
  },
  "219433381": {
    "lat": 41.6545606,
    "lng": -0.8757358,
    "extracted_address": "A very close match for that brick\u2010Mudejar tower\u2014with its alternating blind\u2010arc hats, little columned balconies and horseshoe-arched windows\u2014is the Torre de la Seo (Catedral del Salvador) in Zaragoza, Aragon. Its footprint sits at approximately:  \nLatitude 41.6553\u00b0\u2009N  \nLongitude 0.8794\u00b0\u2009W",
    "formatted_address": "Pl. de la Seo, 4, Casco Antiguo, 50001 Zaragoza, Spain",
    "types": [
      "church",
      "establishment",
      "place_of_worship",
      "point_of_interest",
      "tourist_attraction"
    ],
    "source": "geocoded",
    "description": "Torre de la Seo"
  },
  "1973617618": {
    "lat": 53.4843734,
    "lng": -1.2258188,
    "extracted_address": "Conisbrough Castle",
    "formatted_address": "Castle Hill, Conisbrough, Doncaster DN12 3BU, UK",
    "types": [
      "establishment",
      "point_of_interest",
      "tourist_attraction"
    ],
    "source": "geocoded",
    "description": "Conisbrough Castle"
  },
  "247024863": {
    "lat": 39.94179099999999,
    "lng": 116.382454,
    "extracted_address": "Shichahai/Houhai",
    "formatted_address": "Shichahai, Xicheng District, Beijing, China, 100035",
    "types": [
      "neighborhood",
      "political"
    ],
    "source": "geocoded",
    "description": "Shichahai/Houhai"
  },
  "243799407": {
    "lat": 12.9914929,
    "lng": 80.2336907,
    "extracted_address": "IIT Madras",
    "formatted_address": "Indian Institute Of Technology, Chennai, Tamil Nadu 600036, India",
    "types": [
      "establishment",
      "point_of_interest",
      "university"
    ],
    "source": "geocoded",
    "description": "IIT Madras"
  },
  "5292540094": {
    "lat": 27.180284,
    "lng": 33.8075982,
    "extracted_address": "Hurghada International Airport",
    "formatted_address": "Hurghada International Airport, Hurghada Airport Toll Gate, Airport rd\u060c Hurghada 1, Red Sea Governorate 84511, Egypt",
    "types": [
      "airport",
      "establishment",
      "point_of_interest"
    ],
    "source": "geocoded",
    "description": "Hurghada International Airport"
  },
  "5395039226": {
    "lat": 40.7479925,
    "lng": -74.0047649,
    "extracted_address": "The High Line",
    "formatted_address": "The High Line, New York, NY 10011, USA",
    "types": [
      "establishment",
      "park",
      "point_of_interest",
      "tourist_attraction"
    ],
    "source": "geocoded",
    "description": "The High Line"
  },
  "2870241487": {
    "lat": 42.373465,
    "lng": -71.1189467,
    "extracted_address": "Harvard Square",
    "formatted_address": "Brattle St, Cambridge, MA 02138, USA",
    "types": [
      "establishment",
      "point_of_interest",
      "tourist_attraction"
    ],
    "source": "geocoded",
    "description": "Harvard Square"
  },
  "1799241727": {
    "lat": 51.49671499999999,
    "lng": -0.1763672,
    "extracted_address": "Natural History Museum",
    "formatted_address": "Cromwell Rd, South Kensington, London SW7 5BD, UK",
    "types": [
      "establishment",
      "library",
      "museum",
      "point_of_interest",
      "tourist_attraction"
    ],
    "source": "geocoded",
    "description": "Natural History Museum"
  },
  "285969802": {
    "lat": 40.6992753,
    "lng": -74.0394328,
    "extracted_address": "Ellis Island Immigration Museum",
    "formatted_address": "Ellis Is, Jersey City, NJ 07305, USA",
    "types": [
      "establishment",
      "museum",
      "point_of_interest"
    ],
    "source": "geocoded",
    "description": "Ellis Island Immigration Museum"
  },
  "216885820": {
    "lat": 36.2038653,
    "lng": -86.2993584,
    "extracted_address": "Cumberland University",
    "formatted_address": "1 Cumberland Dr, Lebanon, TN 37087, USA",
    "types": [
      "establishment",
      "point_of_interest",
      "university"
    ],
    "source": "geocoded",
    "description": "Cumberland University"
  },
  "565519767": {
    "lat": 51.5008638,
    "lng": -0.1219645,
    "extracted_address": "Westminster Bridge",
    "formatted_address": "Westminster Bridge, Westminster Bridge, London SW1A 2JH, UK",
    "types": [
      "establishment",
      "point_of_interest",
      "tourist_attraction"
    ],
    "source": "geocoded",
    "description": "Westminster Bridge"
  },
  "6042645653": {
    "lat": 47.8738377,
    "lng": -120.2003552,
    "extracted_address": "Lake Chelan State Park",
    "formatted_address": "Lake Chelan State Park, 7544 S Lakeshore Rd, Chelan, WA 98816, USA",
    "types": [
      "establishment",
      "park",
      "point_of_interest",
      "tourist_attraction"
    ],
    "source": "geocoded",
    "description": "Lake Chelan State Park"
  },
  "8706699810": {
    "lat": 41.4233906,
    "lng": -74.0622764,
    "extracted_address": "Storm King Art Center",
    "formatted_address": "1 Museum Rd, New Windsor, NY 12553, USA",
    "types": [
      "establishment",
      "museum",
      "point_of_interest"
    ],
    "source": "geocoded",
    "description": "Storm King Art Center"
  },
  "2884204484": {
    "lat": 51.50759530000001,
    "lng": -0.0993564,
    "extracted_address": "Tate Modern",
    "formatted_address": "Bankside, London SE1 9TG, UK",
    "types": [
      "art_gallery",
      "establishment",
      "point_of_interest",
      "store",
      "tourist_attraction"
    ],
    "source": "geocoded",
    "description": "Tate Modern"
  },
  "4329535990": {
    "lat": -35.7752426,
    "lng": 137.2142417,
    "extracted_address": "This is very likely one of the tourist\u2010demo charcoal kilns at Emu Ridge Charcoal on Kangaroo Island, South Australia.  In particular the \u201ctunnel\u201d style pit kiln and viewing platform are exactly what they use there.  Emu Ridge Charcoal is just off North Coast Road between Kingscote and Parndana.  \n\nApproximate coordinates:\nLatitude:  \u201335.66  \nLongitude: 137.90",
    "formatted_address": "Kangaroo Island, South Australia, Australia",
    "types": [
      "establishment",
      "natural_feature"
    ],
    "source": "geocoded",
    "description": "Emu Ridge Charcoal"
  },
  "13461766705": {
    "lat": 29.2144614,
    "lng": -13.4811973,
    "extracted_address": "Mirador del R\u00edo",
    "formatted_address": "Mirador del Rio, 35541, Las Palmas, Spain",
    "types": [
      "establishment",
      "point_of_interest",
      "tourist_attraction"
    ],
    "source": "geocoded",
    "description": "Mirador del R\u00edo"
  },
  "3881805795": {
    "lat": 52.5257861,
    "lng": 13.3888667,
    "extracted_address": "Tacheles",
    "formatted_address": "Oranienburger Str. 54/4OG, 10117 Berlin, Germany",
    "types": [
      "art_gallery",
      "establishment",
      "museum",
      "point_of_interest"
    ],
    "source": "geocoded",
    "description": "Tacheles"
  },
  "2927129825": {
    "lat": 49.3592091,
    "lng": -0.8554058999999999,
    "extracted_address": "Normandy American Cemetery and Memorial",
    "formatted_address": "Normandy American Cemetery, Rte du Cimetiere Americain, 14710 Colleville-sur-Mer, France",
    "types": [
      "cemetery",
      "church",
      "establishment",
      "park",
      "place_of_worship",
      "point_of_interest",
      "tourist_attraction"
    ],
    "source": "geocoded",
    "description": "Normandy American Cemetery and Memorial"
  },
  "379604236": {
    "lat": 43.3238369,
    "lng": -1.9866066,
    "extracted_address": "Bas\u00edlica de Santa Mar\u00eda del Coro",
    "formatted_address": "31 de Agosto Kalea, 46, 20003 Donostia, Gipuzkoa, Spain",
    "types": [
      "church",
      "establishment",
      "place_of_worship",
      "point_of_interest",
      "tourist_attraction"
    ],
    "source": "geocoded",
    "description": "Bas\u00edlica de Santa Mar\u00eda del Coro"
  },
  "2790764148": {
    "lat": 51.5144065,
    "lng": -0.0802423,
    "extracted_address": "30 St Mary Axe",
    "formatted_address": "30 Saint Mary Axe - Swiss Re, 30 St Mary Axe, London EC3A 8BF, UK",
    "types": [
      "premise",
      "street_address"
    ],
    "source": "geocoded",
    "description": "30 St Mary Axe"
  },
  "5736082154": {
    "lat": 41.8778014,
    "lng": -87.6285182,
    "extracted_address": "University of Illinois John Marshall Law School",
    "formatted_address": "300 S State St, Chicago, IL 60604, USA",
    "types": [
      "establishment",
      "point_of_interest"
    ],
    "source": "geocoded",
    "description": "University of Illinois John Marshall Law School"
  },
  "5596097823": {
    "lat": -40.9348501,
    "lng": 148.2186492,
    "extracted_address": "Mt. William",
    "formatted_address": "Mount William TAS 7264, Australia",
    "types": [
      "locality",
      "political"
    ],
    "source": "geocoded",
    "description": "Mt. William"
  },
  "443568113": {
    "lat": 34.6889851,
    "lng": 135.8398158,
    "extracted_address": "T\u014ddai-ji Temple",
    "formatted_address": "406-1 Z\u014dshich\u014d, Nara, 630-8587, Japan",
    "types": [
      "establishment",
      "place_of_worship",
      "point_of_interest",
      "tourist_attraction"
    ],
    "source": "geocoded",
    "description": "T\u014ddai-ji Temple"
  },
  "3427341325": {
    "lat": 64.3127094,
    "lng": -20.300721,
    "extracted_address": "Strokkur geyser",
    "formatted_address": "8M7X+3PJ, Hafnart\u00fan, 806 Selfoss, Iceland",
    "types": [
      "establishment",
      "point_of_interest",
      "tourist_attraction"
    ],
    "source": "geocoded",
    "description": "Strokkur geyser"
  },
  "4134663298": {
    "lat": 45.045842,
    "lng": 6.304705999999999,
    "extracted_address": "La Grave",
    "formatted_address": "La Grave, France",
    "types": [
      "locality",
      "political"
    ],
    "source": "geocoded",
    "description": "La Grave"
  },
  "4441179970": {
    "lat": 37.4341563,
    "lng": 127.0201267,
    "extracted_address": "Seoul Land",
    "formatted_address": "181 Gwangmyeong-ro, Gwacheon-si, Gyeonggi-do, South Korea",
    "types": [
      "amusement_park",
      "establishment",
      "point_of_interest",
      "tourist_attraction"
    ],
    "source": "geocoded",
    "description": "Seoul Land"
  },
  "7488269670": {
    "lat": 39.70948120000001,
    "lng": 2.6223736,
    "extracted_address": "Real Cartuja de Valldemossa",
    "formatted_address": "Pla\u00e7a Cartoixa, s/n, 07170 Valldemossa, Illes Balears, Spain",
    "types": [
      "establishment",
      "museum",
      "point_of_interest",
      "tourist_attraction"
    ],
    "source": "geocoded",
    "description": "Real Cartuja de Valldemossa"
  },
  "175835676": {
    "lat": 52.3599976,
    "lng": 4.8852188,
    "extracted_address": "Rijksmuseum",
    "formatted_address": "Museumstraat 1, 1071 XX Amsterdam, Netherlands",
    "types": [
      "establishment",
      "museum",
      "point_of_interest",
      "tourist_attraction"
    ],
    "source": "geocoded",
    "description": "Rijksmuseum"
  },
  "8307089134": {
    "lat": 43.7752136,
    "lng": 11.2557272,
    "extracted_address": "Palazzo Medici Riccardi",
    "formatted_address": "Via Camillo Cavour, 3, 50129 Firenze FI, Italy",
    "types": [
      "art_gallery",
      "establishment",
      "museum",
      "point_of_interest",
      "tourist_attraction"
    ],
    "source": "geocoded",
    "description": "Palazzo Medici Riccardi"
  },
  "3031378811": {
    "lat": -21.1354928,
    "lng": 55.6256749,
    "extracted_address": "La Plaine des Palmistes",
    "formatted_address": "La Plaine-des-Palmistes 97431, R\u00e9union",
    "types": [
      "locality",
      "political"
    ],
    "source": "geocoded",
    "description": "La Plaine des Palmistes"
  },
  "6074064623": {
    "lat": 42.2966861,
    "lng": -89.6212271,
    "extracted_address": "Freeport",
    "formatted_address": "Freeport, IL 61032, USA",
    "types": [
      "locality",
      "political"
    ],
    "source": "geocoded",
    "description": "Freeport"
  },
  "358066578": {
    "lat": 38.255262,
    "lng": -85.75839119999999,
    "extracted_address": "Market & 5th",
    "formatted_address": "S 5th @ W Market, Louisville, KY 40202, USA",
    "types": [
      "establishment",
      "point_of_interest",
      "transit_station"
    ],
    "source": "geocoded",
    "description": "Market & 5th"
  },
  "6779799981": {
    "lat": 1.2852044,
    "lng": 103.8610313,
    "extracted_address": "Marina Bay Sands SkyPark Observation Deck",
    "formatted_address": "10 Bayfront Avenue, Hotel, Tower 3 Level 56, Marina Bay Sands, Singapore 018956",
    "types": [
      "establishment",
      "point_of_interest",
      "tourist_attraction"
    ],
    "source": "geocoded",
    "description": "Marina Bay Sands SkyPark Observation Deck"
  },
  "5839161640": {
    "lat": 51.8089236,
    "lng": -0.3565595,
    "extracted_address": "Rothamsted Research",
    "formatted_address": "West Common, Harpenden AL5 2JQ, UK",
    "types": [
      "establishment",
      "point_of_interest"
    ],
    "source": "geocoded",
    "description": "Rothamsted Research"
  },
  "5923624371": {
    "lat": 40.7535367,
    "lng": -73.9829529,
    "extracted_address": "Bryant Park",
    "formatted_address": "Bryant Park, New York, NY 10018, USA",
    "types": [
      "establishment",
      "park",
      "point_of_interest",
      "tourist_attraction"
    ],
    "source": "geocoded",
    "description": "Bryant Park"
  },
  "7962973752": {
    "lat": 44.9781701,
    "lng": -93.2558665,
    "extracted_address": "Guthrie Theatre",
    "formatted_address": "818 S 2nd St, Minneapolis, MN 55415, USA",
    "types": [
      "establishment",
      "point_of_interest",
      "tourist_attraction"
    ],
    "source": "geocoded",
    "description": "Guthrie Theatre"
  },
  "1386606787": {
    "lat": -33.9079916,
    "lng": 18.420162,
    "extracted_address": "Victoria & Alfred Waterfront",
    "formatted_address": "Cape Town, 8001, South Africa",
    "types": [
      "art_gallery",
      "establishment",
      "point_of_interest",
      "shopping_mall",
      "tourist_attraction"
    ],
    "source": "geocoded",
    "description": "Victoria & Alfred Waterfront"
  },
  "5473969715": {
    "lat": 51.512615,
    "lng": -0.155434,
    "extracted_address": "Green Street",
    "formatted_address": "Green St, London W1K, UK",
    "types": [
      "route"
    ],
    "source": "geocoded",
    "description": "Green Street"
  },
  "6296560201": {
    "lat": 48.87987039999999,
    "lng": 0.1712529,
    "extracted_address": "While there\u2019s no landmark or signage in the shot that pins it down absolutely, the red-and-white standard, the late-war U.S. jeep and the very French deciduous backdrop strongly suggest a Normandy\u2013area World War II reenactment. My best guess is the Drop Zone Festival grounds at Sainte-M\u00e8re-\u00c9glise, France, around\n\n  49.4140\u00b0 N, 1.3338\u00b0 W  \n\n\u2013 or somewhere very close by in southwest Manche, Normandy.",
    "formatted_address": "Normandy, France",
    "types": [
      "administrative_area_level_1",
      "political"
    ],
    "source": "geocoded",
    "description": "Drop Zone Festival grounds"
  },
  "311861136": {
    "lat": 31.2231612,
    "lng": 121.4436751,
    "extracted_address": "Huxinting Teahouse",
    "formatted_address": "\u4e45\u5149 Jing'An, China, 200040",
    "types": [
      "establishment",
      "point_of_interest"
    ],
    "source": "geocoded",
    "description": "Huxinting Teahouse"
  },
  "511802589": {
    "lat": 40.752614,
    "lng": -73.419844,
    "extracted_address": "Adventureland",
    "formatted_address": "2245 Broadhollow Rd, Farmingdale, NY 11735, USA",
    "types": [
      "amusement_park",
      "establishment",
      "point_of_interest",
      "tourist_attraction"
    ],
    "source": "geocoded",
    "description": "Adventureland"
  },
  "1521426546": {
    "lat": 41.7311182,
    "lng": 12.2862694,
    "extracted_address": "Lido di Ostia",
    "formatted_address": "Ostia, Metropolitan City of Rome Capital, Italy",
    "types": [
      "locality",
      "political"
    ],
    "source": "geocoded",
    "description": "Lido di Ostia"
  },
  "6279251255": {
    "lat": 40.7794366,
    "lng": -73.963244,
    "extracted_address": "Metropolitan Museum of Art",
    "formatted_address": "1000 5th Ave, New York, NY 10028, USA",
    "types": [
      "establishment",
      "museum",
      "point_of_interest",
      "tourist_attraction"
    ],
    "source": "geocoded",
    "description": "Metropolitan Museum of Art"
  },
  "6295982812": {
    "lat": 37.7804444,
    "lng": -122.51365,
    "extracted_address": "Sutro Baths",
    "formatted_address": "Sutro Baths, 1004 Point Lobos Ave, San Francisco, CA 94121, USA",
    "types": [
      "establishment",
      "park",
      "point_of_interest",
      "tourist_attraction"
    ],
    "source": "geocoded",
    "description": "Sutro Baths"
  },
  "3015282977": {
    "lat": 54.3788036,
    "lng": 12.4178274,
    "extracted_address": "Beach at Ahrenshoop",
    "formatted_address": "18 Ahrenshoop, Germany",
    "types": [
      "locality",
      "political"
    ],
    "source": "geocoded",
    "description": "Beach at Ahrenshoop"
  },
  "4016777484": {
    "lat": 43.3622522,
    "lng": -5.8485461,
    "extracted_address": "Oviedo",
    "formatted_address": "Oviedo, Municipality of Oviedo, Asturias, Spain",
    "types": [
      "locality",
      "political"
    ],
    "source": "geocoded",
    "description": "Oviedo"
  },
  "12714152683": {
    "lat": 36.7580878,
    "lng": 139.5987466,
    "extracted_address": "T\u014dsh\u014d-g\u016b Shrine",
    "formatted_address": "2301 Sannai, Nikko, Tochigi 321-1431, Japan",
    "types": [
      "establishment",
      "place_of_worship",
      "point_of_interest",
      "tourist_attraction"
    ],
    "source": "geocoded",
    "description": "T\u014dsh\u014d-g\u016b Shrine"
  },
  "8306613715": {
    "lat": 18.4148331,
    "lng": -77.13484650000001,
    "extracted_address": "Dunn\u2019s River Falls",
    "formatted_address": "The World Famous Dunn's River Falls & Park, Ocho Rios, Jamaica",
    "types": [
      "establishment",
      "park",
      "point_of_interest",
      "tourist_attraction"
    ],
    "source": "geocoded",
    "description": "Dunn\u2019s River Falls"
  },
  "2153205662": {
    "lat": 51.5092578,
    "lng": -0.1397433,
    "extracted_address": "Burlington House",
    "formatted_address": "Burlington House, Piccadilly, London W1J 0BD, UK",
    "types": [
      "premise",
      "street_address"
    ],
    "source": "geocoded",
    "description": "Burlington House"
  },
  "4811750972": {
    "lat": 28.1966667,
    "lng": 113.2208333,
    "extracted_address": "Changsha Huanghua International Airport",
    "formatted_address": "56WC+M88 Changsha Huanghua International Airport (CSX), Chang Sha Xian, Chang Sha Shi, Hu Nan Sheng, China, 410141",
    "types": [
      "airport",
      "establishment",
      "point_of_interest"
    ],
    "source": "geocoded",
    "description": "Changsha Huanghua International Airport"
  },
  "97344146": {
    "lat": 41.4036299,
    "lng": 2.1743558,
    "extracted_address": "Bas\u00edlica de la Sagrada Fam\u00edlia",
    "formatted_address": "Carrer de Mallorca, 401, L'Eixample, 08013 Barcelona, Spain",
    "types": [
      "church",
      "establishment",
      "place_of_worship",
      "point_of_interest",
      "tourist_attraction"
    ],
    "source": "geocoded",
    "description": "Bas\u00edlica de la Sagrada Fam\u00edlia"
  },
  "1439764921": {
    "lat": 51.9606649,
    "lng": 7.6261347,
    "extracted_address": "Muenster parking garage",
    "formatted_address": "48 M\u00fcnster, Germany",
    "types": [
      "locality",
      "political"
    ],
    "source": "geocoded",
    "description": "Muenster parking garage"
  },
  "329033253": {
    "lat": 45.6514817,
    "lng": 13.7733333,
    "extracted_address": "Serbian Orthodox Church of Saint Spyridon",
    "formatted_address": "Via S. Spiridione, 9, 34122 Trieste TS, Italy",
    "types": [
      "church",
      "establishment",
      "place_of_worship",
      "point_of_interest",
      "tourist_attraction"
    ],
    "source": "geocoded",
    "description": "Serbian Orthodox Church of Saint Spyridon"
  },
  "756531584": {
    "lat": 37.7459192,
    "lng": -119.5331992,
    "extracted_address": "Half Dome",
    "formatted_address": "Half Dome, California, USA",
    "types": [
      "establishment",
      "natural_feature"
    ],
    "source": "geocoded",
    "description": "Half Dome"
  },
  "11985456966": {
    "lat": -12.9237266,
    "lng": -38.5080816,
    "extracted_address": "Igreja de Nosso Senhor do Bonfim",
    "formatted_address": "Largo do Bonfim, s/n - Bonfim, Salvador - BA, 40415-475, Brazil",
    "types": [
      "church",
      "establishment",
      "place_of_worship",
      "point_of_interest",
      "tourist_attraction"
    ],
    "source": "geocoded",
    "description": "Igreja de Nosso Senhor do Bonfim"
  },
  "369711791": {
    "lat": 42.880688,
    "lng": -8.544395399999999,
    "extracted_address": "Cathedral of Santiago de Compostela",
    "formatted_address": "Praza do Obradoiro, s/n, 15704 Santiago de Compostela, A Coru\u00f1a, Spain",
    "types": [
      "church",
      "establishment",
      "place_of_worship",
      "point_of_interest"
    ],
    "source": "geocoded",
    "description": "Cathedral of Santiago de Compostela"
  },
  "5136072764": {
    "lat": 32.0804846,
    "lng": 34.7806198,
    "extracted_address": "Rabin Square",
    "formatted_address": "Rabin Square, Tel Aviv-Yafo, Israel",
    "types": [
      "establishment",
      "park",
      "point_of_interest"
    ],
    "source": "geocoded",
    "description": "Rabin Square"
  },
  "5183593914": {
    "lat": 35.665065,
    "lng": -83.4636744,
    "extracted_address": "Rainbow Falls Trail",
    "formatted_address": "Rainbow Falls Trail, Tennessee 37738, USA",
    "types": [
      "route"
    ],
    "source": "geocoded",
    "description": "Rainbow Falls Trail"
  },
  "2903159948": {
    "lat": 47.51257743647754,
    "lng": -121.6162543651396,
    "extracted_address": "Middle Fork Snoqualmie River",
    "formatted_address": "Middle Fork Snoqualmie River, Washington, USA",
    "types": [
      "establishment",
      "natural_feature"
    ],
    "source": "geocoded",
    "description": "Middle Fork Snoqualmie River"
  },
  "10121282706": {
    "lat": 45.435408,
    "lng": 12.3450871,
    "extracted_address": "Calle dei Greci",
    "formatted_address": "Calle dei Greci, 30122 Venezia VE, Italy",
    "types": [
      "route"
    ],
    "source": "geocoded",
    "description": "Calle dei Greci"
  },
  "7769850426": {
    "lat": 29.9563091,
    "lng": -90.0648523,
    "extracted_address": "Chartres Street",
    "formatted_address": "Chartres St, New Orleans, LA, USA",
    "types": [
      "route"
    ],
    "source": "geocoded",
    "description": "Chartres Street"
  },
  "5862873516": {
    "lat": 41.3797129,
    "lng": 2.1681474,
    "extracted_address": "El Raval",
    "formatted_address": "El Raval, Ciutat Vella, Barcelona, Spain",
    "types": [
      "neighborhood",
      "political"
    ],
    "source": "geocoded",
    "description": "El Raval"
  },
  "7276598480": {
    "lat": 44.4728059,
    "lng": -73.1514988,
    "extracted_address": "This image was shot on the apron of Burlington International Airport (BTV) in South Burlington, Vermont \u2013 specifically the autocross lot by Hangar 1 at 44.4715\u00b0 N, 73.1531\u00b0 W.",
    "formatted_address": "Burlington International Airport (BTV), 1200 Airport Dr, South Burlington, VT 05403, USA",
    "types": [
      "airport",
      "establishment",
      "point_of_interest"
    ],
    "source": "geocoded",
    "description": "Hangar 1"
  },
  "456712325": {
    "lat": 1.2846292,
    "lng": 103.8646975,
    "extracted_address": "Flower Dome",
    "formatted_address": "18 Marina Gardens Dr, Flower Dome, Singapore 018953",
    "types": [
      "establishment",
      "park",
      "point_of_interest",
      "tourist_attraction"
    ],
    "source": "geocoded",
    "description": "Flower Dome"
  },
  "3247860886": {
    "lat": 51.5072178,
    "lng": -0.1275862,
    "extracted_address": "London",
    "formatted_address": "London, UK",
    "types": [
      "locality",
      "political"
    ],
    "source": "geocoded",
    "description": "London"
  },
  "427836902": {
    "lat": 40.7739528,
    "lng": -73.97096570000001,
    "extracted_address": "Bethesda Terrace",
    "formatted_address": "New York, NY 10024, USA",
    "types": [
      "establishment",
      "point_of_interest",
      "tourist_attraction"
    ],
    "source": "geocoded",
    "description": "Bethesda Terrace"
  },
  "11175831776": {
    "lat": 50.446306,
    "lng": 30.520272,
    "extracted_address": "Kyiv City State Administration",
    "formatted_address": "Khreschatyk St, 36, Kyiv, Ukraine, 01044",
    "types": [
      "city_hall",
      "establishment",
      "local_government_office",
      "point_of_interest"
    ],
    "source": "geocoded",
    "description": "Kyiv City State Administration"
  },
  "4280912022": {
    "lat": 18.5363875,
    "lng": -72.34654200000001,
    "extracted_address": "downtown Port-au-Prince",
    "formatted_address": "Port-au-Prince, Haiti",
    "types": [
      "locality",
      "political"
    ],
    "source": "geocoded",
    "description": "downtown Port-au-Prince"
  },
  "72918630": {
    "lat": 55.775257,
    "lng": 37.656277,
    "extracted_address": "Komsomolskaya",
    "formatted_address": "Komsomolskaya, Moskva, Russia, 107140",
    "types": [
      "establishment",
      "point_of_interest",
      "subway_station",
      "transit_station"
    ],
    "source": "geocoded",
    "description": "Komsomolskaya"
  },
  "9001135290": {
    "lat": 38.6302859,
    "lng": -109.6009666,
    "extracted_address": "Park Avenue Trail",
    "formatted_address": "Pk Ave Trl, Utah 84532, USA",
    "types": [
      "route"
    ],
    "source": "geocoded",
    "description": "Park Avenue Trail"
  },
  "1351246086": {
    "lat": 34.0076216,
    "lng": 44.148291,
    "extracted_address": "Likely taken on a U.S. Army forward base in central Iraq\u2014most probably Camp Anaconda (Balad Air Base) in Salah ad Din Province, Iraq (around 34.02\u00b0 N, 44.21\u00b0 E).",
    "formatted_address": "Balad, Saladin Governorate, Iraq",
    "types": [
      "locality",
      "political"
    ],
    "source": "geocoded",
    "description": "Camp Anaconda"
  },
  "7281876710": {
    "lat": 48.8560114,
    "lng": 2.3454953,
    "extracted_address": "Conciergerie",
    "formatted_address": "2 Bd du Palais, 75001 Paris, France",
    "types": [
      "establishment",
      "museum",
      "point_of_interest",
      "tourist_attraction"
    ],
    "source": "geocoded",
    "description": "Conciergerie"
  },
  "2337753762": {
    "lat": 50.7975826,
    "lng": -1.0925405,
    "extracted_address": "Portsmouth Guildhall",
    "formatted_address": "Guildhall Square, Portsmouth PO1 2AB, UK",
    "types": [
      "establishment",
      "point_of_interest"
    ],
    "source": "geocoded",
    "description": "Portsmouth Guildhall"
  },
  "4916969136": {
    "lat": 43.6479167,
    "lng": -79.398474,
    "extracted_address": "Graffiti Alley",
    "formatted_address": "Graffiti Alley, Toronto, ON M5V, Canada",
    "types": [
      "route"
    ],
    "source": "geocoded",
    "description": "Graffiti Alley"
  },
  "5764250917": {
    "lat": 35.7139333,
    "lng": 139.7966333,
    "extracted_address": "H\u014dz\u014dmon",
    "formatted_address": "2-ch\u014dme-3-1 Asakusa, Taito City, Tokyo 111-0032, Japan",
    "types": [
      "establishment",
      "place_of_worship",
      "point_of_interest",
      "tourist_attraction"
    ],
    "source": "geocoded",
    "description": "H\u014dz\u014dmon"
  },
  "13963887305": {
    "lat": 19.3589112,
    "lng": 98.43902709999999,
    "extracted_address": "Pai",
    "formatted_address": "Pai, Pai District, Mae Hong Son 58130, Thailand",
    "types": [
      "locality",
      "political"
    ],
    "source": "geocoded",
    "description": "Pai"
  },
  "311141742": {
    "lat": 37.579617,
    "lng": 126.977041,
    "extracted_address": "Gyeongbokgung Palace",
    "formatted_address": "161 Sajik-ro, Jongno District, Seoul, South Korea",
    "types": [
      "establishment",
      "point_of_interest",
      "tourist_attraction"
    ],
    "source": "geocoded",
    "description": "Gyeongbokgung Palace"
  },
  "3227947036": {
    "lat": 18.9352596,
    "lng": 72.827192,
    "extracted_address": "Churchgate railway station",
    "formatted_address": "Churchgate, Maharshi Karve Rd, Churchgate, Mumbai, Maharashtra 400020, India",
    "types": [
      "establishment",
      "point_of_interest",
      "train_station",
      "transit_station"
    ],
    "source": "geocoded",
    "description": "Churchgate railway station"
  },
  "1139613029": {
    "lat": 59.3343363,
    "lng": 18.0587192,
    "extracted_address": "Kungsgatan",
    "formatted_address": "Kungsgatan, Stockholm, Sweden",
    "types": [
      "route"
    ],
    "source": "geocoded",
    "description": "Kungsgatan"
  },
  "683194672": {
    "lat": 35.6710335,
    "lng": 139.7051821,
    "extracted_address": "Takeshita-d\u014dri",
    "formatted_address": "Takeshita St, 1-ch\u014dme Jing\u016bmae, Shibuya, Tokyo 150-0001, Japan",
    "types": [
      "route"
    ],
    "source": "geocoded",
    "description": "Takeshita-d\u014dri"
  },
  "446995789": {
    "lat": -13.5050343,
    "lng": -71.98014429999999,
    "extracted_address": "Sacsayhuam\u00e1n",
    "formatted_address": "Sacsayhuaman, Peru",
    "types": [
      "neighborhood",
      "political"
    ],
    "source": "geocoded",
    "description": "Sacsayhuam\u00e1n"
  },
  "4332725043": {
    "lat": 32.7912192,
    "lng": -96.80964569999999,
    "extracted_address": "Victory Park",
    "formatted_address": "Victory Park, Dallas, TX, USA",
    "types": [
      "neighborhood",
      "political"
    ],
    "source": "geocoded",
    "description": "Victory Park"
  },
  "2893104391": {
    "lat": 33.7746156,
    "lng": -84.3973354,
    "extracted_address": "Tech Green",
    "formatted_address": "ech Green, North Avenue NW, Atlanta, GA 30332, USA",
    "types": [
      "establishment",
      "park",
      "point_of_interest"
    ],
    "source": "geocoded",
    "description": "Tech Green"
  },
  "10003206806": {
    "lat": 43.8242073,
    "lng": 5.3071448,
    "extracted_address": "Bonnieux",
    "formatted_address": "84480 Bonnieux, France",
    "types": [
      "locality",
      "political"
    ],
    "source": "geocoded",
    "description": "Bonnieux"
  },
  "4535662044": {
    "lat": 35.6604139,
    "lng": 139.698578,
    "extracted_address": "Shibuya Center-gai",
    "formatted_address": "Shibuya Center-Gai, Udagawach\u014d, Shibuya, Tokyo 150-0042, Japan",
    "types": [
      "route"
    ],
    "source": "geocoded",
    "description": "Shibuya Center-gai"
  },
  "5908041850": {
    "lat": 39.4703038,
    "lng": -0.3763498,
    "extracted_address": "Plaza del Ayuntamiento",
    "formatted_address": "Sant Francesc, Ciutat Vella, 46002 Val\u00e8ncia, Spain",
    "types": [
      "establishment",
      "point_of_interest",
      "tourist_attraction"
    ],
    "source": "geocoded",
    "description": "Plaza del Ayuntamiento"
  },
  "88585744": {
    "lat": 12.0518011,
    "lng": 24.8804853,
    "extracted_address": "Nyala",
    "formatted_address": "Nyala, Sudan",
    "types": [
      "locality",
      "political"
    ],
    "source": "geocoded",
    "description": "Nyala"
  },
  "6817087374": {
    "lat": -27.4753665,
    "lng": 153.0208068,
    "extracted_address": "South Bank Parklands",
    "formatted_address": "Feel Good Program, Clem Jones Promenade, South Brisbane QLD 4101, Australia",
    "types": [
      "establishment",
      "park",
      "point_of_interest"
    ],
    "source": "geocoded",
    "description": "South Bank Parklands"
  },
  "3993363938": {
    "lat": 48.8696753,
    "lng": 2.3264494,
    "extracted_address": "Boulevard de la Madeleine",
    "formatted_address": "Bd de la Madeleine, Paris, France",
    "types": [
      "route"
    ],
    "source": "geocoded",
    "description": "Boulevard de la Madeleine"
  },
  "1097920068": {
    "lat": 47.233767,
    "lng": -122.5031216,
    "extracted_address": "Center Street Plaza",
    "formatted_address": "4916 Center St, Tacoma, WA 98409, USA",
    "types": [
      "establishment",
      "point_of_interest",
      "shopping_mall"
    ],
    "source": "geocoded",
    "description": "Center Street Plaza"
  },
  "5765699878": {
    "lat": 42.375208,
    "lng": -71.14497399999999,
    "extracted_address": "Mount Auburn Cemetery",
    "formatted_address": "580 Mt Auburn St, Cambridge, MA 02138, USA",
    "types": [
      "cemetery",
      "establishment",
      "point_of_interest",
      "tourist_attraction"
    ],
    "source": "geocoded",
    "description": "Mount Auburn Cemetery"
  },
  "2500808809": {
    "lat": 54.7001729,
    "lng": 17.3169313,
    "extracted_address": "S\u0142owi\u0144ski National Park",
    "formatted_address": "S\u0142owi\u0144ski National Park, Bohater\u00f3w Warszawy 1A, 76-214 Smo\u0142dzino, Poland",
    "types": [
      "establishment",
      "park",
      "point_of_interest",
      "tourist_attraction"
    ],
    "source": "geocoded",
    "description": "S\u0142owi\u0144ski National Park"
  },
  "5948658911": {
    "lat": 47.9900897,
    "lng": -123.5290767,
    "extracted_address": "Hurricane Hill",
    "formatted_address": "Hurricane Hill, Washington 98363, USA",
    "types": [
      "establishment",
      "natural_feature"
    ],
    "source": "geocoded",
    "description": "Hurricane Hill"
  },
  "4745840637": {
    "lat": 35.6906129,
    "lng": 139.6981977,
    "extracted_address": "Shinjuku Station West Exit Bus Terminal",
    "formatted_address": "Shinjuku Sta. West, 1-ch\u014dme-5 Nishishinjuku, Shinjuku City, Tokyo 160-0023, Japan",
    "types": [
      "establishment",
      "point_of_interest",
      "transit_station"
    ],
    "source": "geocoded",
    "description": "Shinjuku Station West Exit Bus Terminal"
  },
  "2846936237": {
    "lat": 38.8887861,
    "lng": -77.0260229,
    "extracted_address": "Smithsonian Castle",
    "formatted_address": "1000 Jefferson Dr SW, Washington, DC 20560, USA",
    "types": [
      "establishment",
      "museum",
      "point_of_interest",
      "tourist_attraction",
      "travel_agency"
    ],
    "source": "geocoded",
    "description": "Smithsonian Castle"
  },
  "5034153774": {
    "lat": 42.0184839,
    "lng": -88.00609709999999,
    "extracted_address": "Busse Woods Picnic Area",
    "formatted_address": "2X9V+93, Beisner Rd, Elk Grove Village, IL 60007, USA",
    "types": [
      "establishment",
      "point_of_interest"
    ],
    "source": "geocoded",
    "description": "Busse Woods Picnic Area"
  },
  "3511424366": {
    "lat": 56.7968571,
    "lng": -5.003550499999999,
    "extracted_address": "Ben Nevis",
    "formatted_address": "Ben Nevis, Fort William PH33 6TE, UK",
    "types": [
      "establishment",
      "natural_feature"
    ],
    "source": "geocoded",
    "description": "Ben Nevis"
  },
  "280847097": {
    "lat": 43.788652,
    "lng": 4.831342999999999,
    "extracted_address": "Saint-R\u00e9my-de-Provence",
    "formatted_address": "13210 Saint-R\u00e9my-de-Provence, France",
    "types": [
      "locality",
      "political"
    ],
    "source": "geocoded",
    "description": "Saint-R\u00e9my-de-Provence"
  },
  "4672989265": {
    "lat": 22.6113591,
    "lng": 120.3493158,
    "extracted_address": "Fengshan District, Kaohsiung City, Taiwan",
    "formatted_address": "Fengshan District, Kaohsiung City, Taiwan 830",
    "types": [
      "administrative_area_level_2",
      "political"
    ],
    "source": "geocoded",
    "description": "Fengshan District, Kaohsiung City, Taiwan"
  },
  "628184053": {
    "lat": 64.65,
    "lng": -16.7,
    "extracted_address": "Kverkfj\u00f6ll caldera",
    "formatted_address": "Kverkfj\u00f6ll, 701, Iceland",
    "types": [
      "establishment",
      "natural_feature"
    ],
    "source": "geocoded",
    "description": "Kverkfj\u00f6ll caldera"
  },
  "109444762": {
    "lat": 33.8950832,
    "lng": -118.4175761,
    "extracted_address": "The Strand at Manhattan Beach",
    "formatted_address": "Marvin Braude Bike Trail, Manhattan Beach, CA 90266, USA",
    "types": [
      "route"
    ],
    "source": "geocoded",
    "description": "The Strand at Manhattan Beach"
  },
  "8406771903": {
    "lat": 38.8943392,
    "lng": -77.0202927,
    "extracted_address": "600 Indiana Ave NW",
    "formatted_address": "600 Indiana Ave NW, Washington, DC 20004, USA",
    "types": [
      "street_address"
    ],
    "source": "geocoded",
    "description": "600 Indiana Ave NW"
  },
  "3480155072": {
    "lat": 1.3422842,
    "lng": 103.8607299,
    "extracted_address": "Central Expressway",
    "formatted_address": "Central Expw., Singapore",
    "types": [
      "route"
    ],
    "source": "geocoded",
    "description": "Central Expressway"
  },
  "5348320913": {
    "lat": -33.8567844,
    "lng": 151.2152967,
    "extracted_address": "Sydney Opera House",
    "formatted_address": "Bennelong Point, Sydney NSW 2000, Australia",
    "types": [
      "establishment",
      "point_of_interest",
      "tourist_attraction"
    ],
    "source": "geocoded",
    "description": "Sydney Opera House"
  },
  "415815332": {
    "lat": 35.7147651,
    "lng": 139.7966553,
    "extracted_address": "Senso-ji",
    "formatted_address": "2-ch\u014dme-3-1 Asakusa, Taito City, Tokyo 111-0032, Japan",
    "types": [
      "establishment",
      "place_of_worship",
      "point_of_interest",
      "tourist_attraction"
    ],
    "source": "geocoded",
    "description": "Senso-ji"
  },
  "556199541": {
    "lat": 14.2241595,
    "lng": 74.8092566,
    "extracted_address": "Jog Falls",
    "formatted_address": "Jog Falls, Karnataka 577435, India",
    "types": [
      "establishment",
      "point_of_interest",
      "tourist_attraction"
    ],
    "source": "geocoded",
    "description": "Jog Falls"
  },
  "5077445230": {
    "lat": 30.2668433,
    "lng": -97.7427924,
    "extracted_address": "Mexic-Arte Museum",
    "formatted_address": "419 Congress Ave., Austin, TX 78701, USA",
    "types": [
      "art_gallery",
      "establishment",
      "museum",
      "point_of_interest",
      "tourist_attraction"
    ],
    "source": "geocoded",
    "description": "Mexic-Arte Museum"
  },
  "523184139": {
    "lat": 48.8849216,
    "lng": 2.3426033,
    "extracted_address": "Montmartre funicular",
    "formatted_address": "Funiculaire de Montmartre, 75018 Paris, France",
    "types": [
      "route"
    ],
    "source": "geocoded",
    "description": "Montmartre funicular"
  },
  "4496629668": {
    "lat": 35.63196328608034,
    "lng": 139.7166793305288,
    "extracted_address": "Meguro River",
    "formatted_address": "Meguro River, Tokyo, Japan",
    "types": [
      "establishment",
      "natural_feature"
    ],
    "source": "geocoded",
    "description": "Meguro River"
  },
  "284743606": {
    "lat": 38.9012445,
    "lng": -77.0507271,
    "extracted_address": "The George Washington University Hospital",
    "formatted_address": "900 23rd St NW, Washington, DC 20037, USA",
    "types": [
      "establishment",
      "health",
      "hospital",
      "point_of_interest"
    ],
    "source": "geocoded",
    "description": "The George Washington University Hospital"
  },
  "8203034515": {
    "lat": 49.282238,
    "lng": -123.1101458,
    "extracted_address": "Victory Square",
    "formatted_address": "Victory Square, 200 W Hastings St, Vancouver, BC V6B 1G8, Canada",
    "types": [
      "establishment",
      "park",
      "point_of_interest",
      "tourist_attraction"
    ],
    "source": "geocoded",
    "description": "Victory Square"
  },
  "682744340": {
    "lat": 47.8608804,
    "lng": -123.9348331,
    "extracted_address": "Hoh Rainforest",
    "formatted_address": "Hoh Rain Forest, 18113 Upper Hoh Rd, Forks, WA 98331, USA",
    "types": [
      "establishment",
      "park",
      "point_of_interest",
      "tourist_attraction",
      "travel_agency"
    ],
    "source": "geocoded",
    "description": "Hoh Rainforest"
  },
  "452289167": {
    "lat": 30.74480789999999,
    "lng": 79.4912552,
    "extracted_address": "Badrinath Temple",
    "formatted_address": "Badri to Mata Murti road, Badrinath, Uttarakhand 246422, India",
    "types": [
      "establishment",
      "hindu_temple",
      "place_of_worship",
      "point_of_interest",
      "tourist_attraction"
    ],
    "source": "geocoded",
    "description": "Badrinath Temple"
  },
  "480372482": {
    "lat": 45.4658434,
    "lng": 9.1899401,
    "extracted_address": "Galleria Vittorio Emanuele II",
    "formatted_address": "20123 Milan, Metropolitan City of Milan, Italy",
    "types": [
      "establishment",
      "point_of_interest",
      "shopping_mall",
      "tourist_attraction"
    ],
    "source": "geocoded",
    "description": "Galleria Vittorio Emanuele II"
  },
  "522146989": {
    "lat": 50.94127839999999,
    "lng": 6.9582814,
    "extracted_address": "Cologne Cathedral",
    "formatted_address": "Domkloster 4, 50667 K\u00f6ln, Germany",
    "types": [
      "church",
      "establishment",
      "museum",
      "place_of_worship",
      "point_of_interest",
      "tourist_attraction"
    ],
    "source": "geocoded",
    "description": "Cologne Cathedral"
  },
  "2694726216": {
    "lat": 33.4578351,
    "lng": -86.3200806,
    "extracted_address": "Pier 59",
    "formatted_address": "Pier 59 Dr, Vincent, AL 35178, USA",
    "types": [
      "establishment",
      "food",
      "point_of_interest",
      "restaurant"
    ],
    "source": "geocoded",
    "description": "Pier 59"
  },
  "1873728": {
    "lat": 40.7942912,
    "lng": -72.8804385,
    "extracted_address": "Wertheim National Wildlife Refuge",
    "formatted_address": "Wertheim National Wildlife Refuge, 340 Smith Rd, Shirley, NY 11967, USA",
    "types": [
      "establishment",
      "park",
      "point_of_interest"
    ],
    "source": "geocoded",
    "description": "Wertheim National Wildlife Refuge"
  },
  "3903204544": {
    "lat": -8.793149999999999,
    "lng": 115.214662,
    "extracted_address": "Nusa Dua",
    "formatted_address": "6647+PVV, Jl. Nusa Dua, Benoa, Kec. Kuta Sel., Kabupaten Badung, Bali 80361, Indonesia",
    "types": [
      "establishment",
      "point_of_interest",
      "shopping_mall"
    ],
    "source": "geocoded",
    "description": "Nusa Dua"
  },
  "7467989216": {
    "lat": 51.508039,
    "lng": -0.128069,
    "extracted_address": "Trafalgar Square",
    "formatted_address": "Trafalgar Sq, London WC2N 5DS, UK",
    "types": [
      "establishment",
      "point_of_interest",
      "tourist_attraction"
    ],
    "source": "geocoded",
    "description": "Trafalgar Square"
  },
  "31700873": {
    "lat": 34.6889851,
    "lng": 135.8398158,
    "extracted_address": "T\u014ddai-ji",
    "formatted_address": "406-1 Z\u014dshich\u014d, Nara, 630-8587, Japan",
    "types": [
      "establishment",
      "place_of_worship",
      "point_of_interest",
      "tourist_attraction"
    ],
    "source": "geocoded",
    "description": "T\u014ddai-ji"
  },
  "1388076875": {
    "lat": 29.4447305,
    "lng": -98.4861019,
    "extracted_address": "St. Mary Street",
    "formatted_address": "N St Mary's St, San Antonio, TX, USA",
    "types": [
      "route"
    ],
    "source": "geocoded",
    "description": "St. Mary Street"
  },
  "3993491561": {
    "lat": -16.4746141,
    "lng": 145.3507164,
    "extracted_address": "Mossman Gorge",
    "formatted_address": "Mossman Gorge QLD 4873, Australia",
    "types": [
      "locality",
      "political"
    ],
    "source": "geocoded",
    "description": "Mossman Gorge"
  },
  "165070370": {
    "lat": 27.0034639,
    "lng": -80.1009152,
    "extracted_address": "Loxahatchee/Jonathan Dickinson State Park",
    "formatted_address": "Jonathan Dickinson State Park, 16450 SE Federal Hwy, Hobe Sound, FL 33455, USA",
    "types": [
      "establishment",
      "park",
      "point_of_interest",
      "tourist_attraction"
    ],
    "source": "geocoded",
    "description": "Loxahatchee/Jonathan Dickinson State Park"
  },
  "6925234617": {
    "lat": 30.0430587,
    "lng": 31.239915,
    "extracted_address": "Mohamed Mahmoud Street",
    "formatted_address": "Mohammed Mahmoud, Cairo Governorate, Egypt",
    "types": [
      "route"
    ],
    "source": "geocoded",
    "description": "Mohamed Mahmoud Street"
  },
  "1574809957": {
    "lat": 57.7470127655324,
    "lng": -4.687305781018138,
    "extracted_address": "Based on the styling of the railing, the riverside path, the level-crossing barriers behind and the fact that a Scottish Episcopal bishop often appears in public wearing a kilt, the most likely spot is along the north bank of the River Tay in Perth, Scotland \u2013 right by the North Inch/South Inch footpath close to the Dunkeld Road level crossing.  \n\nApproximate coordinates:  \nLatitude  56.3965\u00b0 N  \nLongitude \u20133.4300\u00b0 W",
    "formatted_address": "Scotland, UK",
    "types": [
      "administrative_area_level_1",
      "political"
    ],
    "source": "geocoded",
    "description": "North Inch/South Inch footpath"
  },
  "8251381751": {
    "lat": 41.00838400000001,
    "lng": 28.977878,
    "extracted_address": "Basilica Cistern",
    "formatted_address": "Alemdar, Yerebatan Cd. 1/3, 34110 Fatih/\u0130stanbul, T\u00fcrkiye",
    "types": [
      "establishment",
      "museum",
      "point_of_interest",
      "tourist_attraction"
    ],
    "source": "geocoded",
    "description": "Basilica Cistern"
  },
  "539648958": {
    "lat": 37.2982022,
    "lng": -113.0263005,
    "extracted_address": "Zion National Park",
    "formatted_address": "Zion National Park, Utah, USA",
    "types": [
      "establishment",
      "park",
      "point_of_interest",
      "tourist_attraction"
    ],
    "source": "geocoded",
    "description": "Zion National Park"
  },
  "515336129": {
    "lat": -8.4027583,
    "lng": 115.2879987,
    "extracted_address": "Tegallalang",
    "formatted_address": "Tegallalang, Gianyar Regency, Bali, Indonesia",
    "types": [
      "administrative_area_level_3",
      "political"
    ],
    "source": "geocoded",
    "description": "Tegallalang"
  },
  "8815795798": {
    "lat": 35.6938253,
    "lng": 139.7033559,
    "extracted_address": "Shinjuku",
    "formatted_address": "Shinjuku City, Tokyo, Japan",
    "types": [
      "locality",
      "political"
    ],
    "source": "geocoded",
    "description": "Shinjuku"
  },
  "3436537095": {
    "lat": 47.6061389,
    "lng": -122.3328481,
    "extracted_address": "Seattle",
    "formatted_address": "Seattle, WA, USA",
    "types": [
      "locality",
      "political"
    ],
    "source": "geocoded",
    "description": "Seattle"
  },
  "9318404306": {
    "lat": 56.4683152,
    "lng": -5.698121599999999,
    "extracted_address": "Oban\u2013Craignure ferry",
    "formatted_address": "Craignure, Isle of Mull PA65, UK",
    "types": [
      "locality",
      "political"
    ],
    "source": "geocoded",
    "description": "Oban\u2013Craignure ferry"
  },
  "9393468013": {
    "lat": 51.132976,
    "lng": -1.0035732,
    "extracted_address": "Chawton Park Farm",
    "formatted_address": "Chawton Park Rd, Alton GU34 1SW, UK",
    "types": [
      "establishment",
      "point_of_interest"
    ],
    "source": "geocoded",
    "description": "Chawton Park Farm"
  },
  "6002559536": {
    "lat": 48.1089931,
    "lng": 11.5004047,
    "extracted_address": "This photo was taken in the Waldfriedhof (Forest Cemetery) in Munich, Bavaria, Germany.",
    "formatted_address": "F\u00fcrstenrieder Str. 288, 81377 M\u00fcnchen, Germany",
    "types": [
      "cemetery",
      "establishment",
      "point_of_interest"
    ],
    "source": "geocoded",
    "description": "Waldfriedhof"
  },
  "1087662996": {
    "lat": 17.4835828,
    "lng": -92.04696419999999,
    "extracted_address": "Temple of the Inscriptions",
    "formatted_address": "29960 Palenque, Chis., Mexico",
    "types": [
      "establishment",
      "museum",
      "point_of_interest"
    ],
    "source": "geocoded",
    "description": "Temple of the Inscriptions"
  },
  "8216324990": {
    "lat": 1.4087305,
    "lng": 103.9910305,
    "extracted_address": "Chek Jawa",
    "formatted_address": "Chek Jawa Trail, Chek Jawa Wetlands, Singapore",
    "types": [
      "establishment",
      "park",
      "point_of_interest",
      "tourist_attraction"
    ],
    "source": "geocoded",
    "description": "Chek Jawa"
  },
  "2936373184": {
    "lat": 42.373465,
    "lng": -71.1189467,
    "extracted_address": "Harvard Square",
    "formatted_address": "Brattle St, Cambridge, MA 02138, USA",
    "types": [
      "establishment",
      "point_of_interest",
      "tourist_attraction"
    ],
    "source": "geocoded",
    "description": "Harvard Square"
  },
  "7640965516": {
    "lat": 38.8976763,
    "lng": -77.0365298,
    "extracted_address": "White House",
    "formatted_address": "1600 Pennsylvania Ave NW, Washington, DC 20500, USA",
    "types": [
      "establishment",
      "point_of_interest",
      "tourist_attraction"
    ],
    "source": "geocoded",
    "description": "White House"
  },
  "2425196729": {
    "lat": 59.18431029999999,
    "lng": 18.2811826,
    "extracted_address": "Tyresta National Park",
    "formatted_address": "Tyresta National Park and Nature Reserve, 136 59 Vendels\u00f6, Sweden",
    "types": [
      "establishment",
      "park",
      "point_of_interest",
      "tourist_attraction"
    ],
    "source": "geocoded",
    "description": "Tyresta National Park"
  },
  "6331592414": {
    "lat": 41.89759859999999,
    "lng": 12.4984084,
    "extracted_address": "Basilica di Santa Maria Maggiore",
    "formatted_address": "P.za di Santa Maria Maggiore, 00100 Roma RM, Italy",
    "types": [
      "church",
      "establishment",
      "place_of_worship",
      "point_of_interest",
      "tourist_attraction"
    ],
    "source": "geocoded",
    "description": "Basilica di Santa Maria Maggiore"
  },
  "190003873": {
    "lat": 51.5030796,
    "lng": -0.1151239,
    "extracted_address": "Waterloo Underground Station",
    "formatted_address": "Waterloo, York Rd, London SE1 7ND, UK",
    "types": [
      "establishment",
      "point_of_interest",
      "subway_station",
      "transit_station"
    ],
    "source": "geocoded",
    "description": "Waterloo Underground Station"
  },
  "6773483160": {
    "lat": 40.6685881,
    "lng": -73.9628943,
    "extracted_address": "Japanese Hill-and-Pond Garden",
    "formatted_address": "Japanese Hill-and-Pond Garden, 990 Washington Ave, Brooklyn, NY 11225, USA",
    "types": [
      "establishment",
      "park",
      "point_of_interest",
      "tourist_attraction"
    ],
    "source": "geocoded",
    "description": "Japanese Hill-and-Pond Garden"
  },
  "4020824225": {
    "lat": 60.1542843,
    "lng": 7.443046000000001,
    "extracted_address": "Hardangervidda National Park",
    "formatted_address": "Hardangervidda nasjonalpark, Norway",
    "types": [
      "establishment",
      "park",
      "point_of_interest",
      "tourist_attraction"
    ],
    "source": "geocoded",
    "description": "Hardangervidda National Park"
  },
  "6758760147": {
    "lat": 35.6254126,
    "lng": 139.2437385,
    "extracted_address": "Mount Takao",
    "formatted_address": "Mount Takao, Takaomachi, Hachioji, Tokyo 193-0844, Japan",
    "types": [
      "establishment",
      "natural_feature"
    ],
    "source": "geocoded",
    "description": "Mount Takao"
  },
  "2315275238": {
    "lat": 51.5072178,
    "lng": -0.1275862,
    "extracted_address": "Westfield London",
    "formatted_address": "London, UK",
    "types": [
      "locality",
      "political"
    ],
    "source": "geocoded",
    "description": "Westfield London"
  },
  "2913584854": {
    "lat": 32.7872403,
    "lng": -106.3256816,
    "extracted_address": "White Sands National Park",
    "formatted_address": "White Sands National Park, New Mexico, USA",
    "types": [
      "establishment",
      "park",
      "point_of_interest",
      "tourist_attraction"
    ],
    "source": "geocoded",
    "description": "White Sands National Park"
  },
  "6062877661": {
    "lat": 40.7479925,
    "lng": -74.0047649,
    "extracted_address": "High Line",
    "formatted_address": "The High Line, New York, NY 10011, USA",
    "types": [
      "establishment",
      "park",
      "point_of_interest",
      "tourist_attraction"
    ],
    "source": "geocoded",
    "description": "High Line"
  },
  "7754718074": {
    "lat": -8.282407899999999,
    "lng": -35.975225,
    "extracted_address": "Pra\u00e7a S\u00e3o Roque",
    "formatted_address": "San Roque Square - R. Santo Andr\u00e9, 261 - Nossa Sra. das Dores, Caruaru - PE, 55004-390, Brazil",
    "types": [
      "establishment",
      "park",
      "point_of_interest"
    ],
    "source": "geocoded",
    "description": "Pra\u00e7a S\u00e3o Roque"
  },
  "864927630": {
    "lat": 48.8548425,
    "lng": 2.3421691,
    "extracted_address": "Quai des Grands Augustins",
    "formatted_address": "Quai des Grands Augustins, 75006 Paris, France",
    "types": [
      "route"
    ],
    "source": "geocoded",
    "description": "Quai des Grands Augustins"
  },
  "143845164": {
    "lat": 18.9219841,
    "lng": 72.8346543,
    "extracted_address": "Gateway of India",
    "formatted_address": "Apollo Bandar, Colaba, Mumbai, Maharashtra, India",
    "types": [
      "establishment",
      "point_of_interest",
      "tourist_attraction"
    ],
    "source": "geocoded",
    "description": "Gateway of India"
  },
  "379419762": {
    "lat": 39.8821803,
    "lng": 116.4066056,
    "extracted_address": "Hall of Prayer for Good Harvests",
    "formatted_address": "Dongcheng, China, 100061",
    "types": [
      "establishment",
      "place_of_worship",
      "point_of_interest",
      "tourist_attraction"
    ],
    "source": "geocoded",
    "description": "Hall of Prayer for Good Harvests"
  },
  "6335084059": {
    "lat": 48.8850123,
    "lng": 2.3433924,
    "extracted_address": "Square Louise-Michel",
    "formatted_address": "Square Louise Michel, 6 Pl. Saint-Pierre, 75018 Paris, France",
    "types": [
      "establishment",
      "park",
      "point_of_interest",
      "tourist_attraction"
    ],
    "source": "geocoded",
    "description": "Square Louise-Michel"
  },
  "5864025794": {
    "lat": 30.2725927,
    "lng": -97.756755,
    "extracted_address": "West 6th Street",
    "formatted_address": "W 6th St, Austin, TX, USA",
    "types": [
      "route"
    ],
    "source": "geocoded",
    "description": "West 6th Street"
  },
  "4355057737": {
    "lat": 38.8858915,
    "lng": -77.047022,
    "extracted_address": "West Potomac Park",
    "formatted_address": "West Potomac Park, 2912 Independence Ave SW, Washington, DC 20004, USA",
    "types": [
      "establishment",
      "park",
      "point_of_interest",
      "tourist_attraction"
    ],
    "source": "geocoded",
    "description": "West Potomac Park"
  },
  "5746464724": {
    "lat": 46.0508166,
    "lng": 14.5081447,
    "extracted_address": "St. Nicholas\u2019s Cathedral",
    "formatted_address": "Dolni\u010darjeva ulica 1, 1000 Ljubljana, Slovenia",
    "types": [
      "church",
      "establishment",
      "place_of_worship",
      "point_of_interest",
      "tourist_attraction"
    ],
    "source": "geocoded",
    "description": "St. Nicholas\u2019s Cathedral"
  },
  "3448603463": {
    "lat": 40.6602037,
    "lng": -73.9689558,
    "extracted_address": "Prospect Park",
    "formatted_address": "Prospect Park, Brooklyn, NY, USA",
    "types": [
      "establishment",
      "park",
      "point_of_interest",
      "tourist_attraction"
    ],
    "source": "geocoded",
    "description": "Prospect Park"
  },
  "7190987226": {
    "lat": 42.4496222,
    "lng": -71.230762,
    "extracted_address": "Lexington Battle Green",
    "formatted_address": "1625 Massachusetts Ave, Lexington, MA 02421, USA",
    "types": [
      "establishment",
      "point_of_interest",
      "tourist_attraction"
    ],
    "source": "geocoded",
    "description": "Lexington Battle Green"
  },
  "297192747": {
    "lat": -45.02850110000001,
    "lng": 168.6561937,
    "extracted_address": "Skyline Queenstown",
    "formatted_address": "53 Brecon Street, Queenstown 9300, New Zealand",
    "types": [
      "cafe",
      "establishment",
      "food",
      "point_of_interest",
      "tourist_attraction"
    ],
    "source": "geocoded",
    "description": "Skyline Queenstown"
  },
  "1289357310": {
    "lat": 43.4056771,
    "lng": 28.1475919,
    "extracted_address": "Balchik Palace Botanical Garden",
    "formatted_address": "\"Dvoretsa\" Architectural Park, Dvoretsa, \u0443\u043b.\u0414\u0430\u043a\u0438 \u0419\u043e\u0440\u0434\u0430\u043d\u043e\u0432 1, 9600 Balchik, Bulgaria",
    "types": [
      "establishment",
      "museum",
      "park",
      "point_of_interest",
      "tourist_attraction"
    ],
    "source": "geocoded",
    "description": "Balchik Palace Botanical Garden"
  },
  "6961442808": {
    "lat": 36.229167,
    "lng": -121.7603537,
    "extracted_address": "Ventana Big Sur",
    "formatted_address": "48123 CA-1, Big Sur, CA 93920, USA",
    "types": [
      "establishment",
      "lodging",
      "point_of_interest"
    ],
    "source": "geocoded",
    "description": "Ventana Big Sur"
  },
  "4943904461": {
    "lat": 37.20391100000001,
    "lng": 112.174874,
    "extracted_address": "Pingyao Ancient City Wall",
    "formatted_address": "653F+HW9, Xi Da Jie, Ping Yao Xian, Jin Zhong Shi, Shan Xi Sheng, China, 031199",
    "types": [
      "establishment",
      "point_of_interest",
      "tourist_attraction"
    ],
    "source": "geocoded",
    "description": "Pingyao Ancient City Wall"
  },
  "496664918": {
    "lat": 52.6543481,
    "lng": -7.2542673,
    "extracted_address": "Smithwick\u2019s Experience at St. Francis Abbey Brewery",
    "formatted_address": "44 Parliament St, Gardens, Kilkenny, R95 VK54, Ireland",
    "types": [
      "establishment",
      "food",
      "museum",
      "point_of_interest",
      "tourist_attraction"
    ],
    "source": "geocoded",
    "description": "Smithwick\u2019s Experience at St. Francis Abbey Brewery"
  },
  "4337867861": {
    "lat": -34.607647,
    "lng": -58.8848963,
    "extracted_address": "Calle Defensa",
    "formatted_address": "C. Defensa, B1748 Gral. Rodr\u00edguez, Provincia de Buenos Aires, Argentina",
    "types": [
      "route"
    ],
    "source": "geocoded",
    "description": "Calle Defensa"
  },
  "74619051": {
    "lat": 35.6549505,
    "lng": 139.7587206,
    "extracted_address": "Kyu-Shiba Riky\u016b Garden",
    "formatted_address": "Kyu-Shiba-riky\u016b Gardens, 1-ch\u014dme-4-1 Kaigan, Minato City, Tokyo 105-0022, Japan",
    "types": [
      "establishment",
      "park",
      "point_of_interest",
      "tourist_attraction"
    ],
    "source": "geocoded",
    "description": "Kyu-Shiba Riky\u016b Garden"
  },
  "13068369505": {
    "lat": 54.2922513,
    "lng": 12.3525759,
    "extracted_address": "Dierhagen Ostsee beach",
    "formatted_address": "18 Dierhagen, Germany",
    "types": [
      "locality",
      "political"
    ],
    "source": "geocoded",
    "description": "Dierhagen Ostsee beach"
  },
  "356472264": {
    "lat": 33.9916855,
    "lng": -116.0628417,
    "extracted_address": "Jumbo Rocks",
    "formatted_address": "Jumbo Rocks Campground, Jumbo Rocks Campground, Park Blvd, Twentynine Palms, CA 92277, USA",
    "types": [
      "campground",
      "establishment",
      "lodging",
      "park",
      "point_of_interest",
      "tourist_attraction"
    ],
    "source": "geocoded",
    "description": "Jumbo Rocks"
  },
  "3252552164": {
    "lat": 31.97090699999999,
    "lng": 118.8128989,
    "extracted_address": "Based on the uniforms, vehicle markings and the style of the breeze\u2010block fa\u00e7ade, this is a PLA engineer demolition exercise on the People\u2019s Liberation Army Engineering University grounds in Nanjing, Jiangsu Province, China.",
    "formatted_address": "China, Nan Jing Shi, Jiang Ning Qu, \u53cc\u9f99\u885760\u53f7 \u90ae\u653f\u7f16\u7801: 210022",
    "types": [
      "establishment",
      "point_of_interest"
    ],
    "source": "geocoded",
    "description": "People\u2019s Liberation Army Engineering University"
  },
  "7405826530": {
    "lat": 33.8120918,
    "lng": -117.9189742,
    "extracted_address": "Disneyland",
    "formatted_address": "Anaheim, CA 92802, USA",
    "types": [
      "amusement_park",
      "establishment",
      "point_of_interest",
      "tourist_attraction"
    ],
    "source": "geocoded",
    "description": "Disneyland"
  },
  "9672684353": {
    "lat": 47.6061389,
    "lng": -122.3328481,
    "extracted_address": "Seattle",
    "formatted_address": "Seattle, WA, USA",
    "types": [
      "locality",
      "political"
    ],
    "source": "geocoded",
    "description": "Seattle"
  },
  "3194135654": {
    "lat": 35.6800835,
    "lng": -83.6494826,
    "extracted_address": "Metcalf Bottoms picnic area",
    "formatted_address": "Metcalf Bottoms Picnic Area Rd N, Tennessee 37738, USA",
    "types": [
      "route"
    ],
    "source": "geocoded",
    "description": "Metcalf Bottoms picnic area"
  },
  "2901075604": {
    "lat": 27.4237906,
    "lng": -97.29765239999999,
    "extracted_address": "Malaquite Beach",
    "formatted_address": "FPGG+XH Malaquite Beach, Corpus Christi, TX 78418, USA",
    "types": [
      "establishment",
      "park",
      "point_of_interest"
    ],
    "source": "geocoded",
    "description": "Malaquite Beach"
  },
  "6343370101": {
    "lat": 41.3922586,
    "lng": 2.1650273,
    "extracted_address": "The little \u201cSUPERFRUIT \u00b7 FRUITS SECS\u201d shop front (Catalan for \u201cdried fruits\u201d) combined with the typical Eixample-style metal awnings, the mix of mopeds and bike racks, and the pedestrian zebra strip all point to Barcelona, not Madrid or Valencia. My best guess is that this was shot on one of the short cross-streets just off La Rambla in the Ciutat Vella/Eixample border \u2013 roughly around:\n\nLatitude 41.3851\u00b0 N  \nLongitude 2.1734\u00b0 E  \n\n(That puts you on a typical Barcelona block with dried\u2010fruit \u201csuperfruites\u201d shops on the ground floor.)",
    "formatted_address": "Eixample, Barcelona, Spain",
    "types": [
      "political",
      "sublocality",
      "sublocality_level_1"
    ],
    "source": "geocoded",
    "description": "SUPERFRUIT \u00b7 FRUITS SECS"
  },
  "9156741088": {
    "lat": 43.8803357,
    "lng": -103.4537746,
    "extracted_address": "Mount Rushmore National Memorial",
    "formatted_address": "Mount Rushmore National Memorial, Keystone, SD 57751, USA",
    "types": [
      "establishment",
      "park",
      "point_of_interest",
      "tourist_attraction"
    ],
    "source": "geocoded",
    "description": "Mount Rushmore National Memorial"
  },
  "197132294": {
    "lat": 40.7074959,
    "lng": -73.99077419999999,
    "extracted_address": "Manhattan Bridge",
    "formatted_address": "Manhattan Bridge, Manhattan Brg, New York, NY 11201, USA",
    "types": [
      "establishment",
      "point_of_interest",
      "tourist_attraction"
    ],
    "source": "geocoded",
    "description": "Manhattan Bridge"
  },
  "12403641564": {
    "lat": 34.1369506,
    "lng": -118.3584005,
    "extracted_address": "Hilton Los Angeles/Universal City",
    "formatted_address": "555 Universal Hollywood Dr, Universal City, CA 91608, USA",
    "types": [
      "establishment",
      "lodging",
      "point_of_interest"
    ],
    "source": "geocoded",
    "description": "Hilton Los Angeles/Universal City"
  },
  "4906549885": {
    "lat": 45.0358657,
    "lng": 6.4051657,
    "extracted_address": "Col du Lautaret",
    "formatted_address": "Col du Lautaret, France",
    "types": [
      "establishment",
      "natural_feature"
    ],
    "source": "geocoded",
    "description": "Col du Lautaret"
  },
  "902804092": {
    "lat": 40.2682686,
    "lng": -123.8751376,
    "extracted_address": "Shrine Tree",
    "formatted_address": "13078 Avenue of the Giants, Myers Flat, CA 95554, USA",
    "types": [
      "establishment",
      "point_of_interest",
      "tourist_attraction",
      "travel_agency"
    ],
    "source": "geocoded",
    "description": "Shrine Tree"
  },
  "7932100896": {
    "lat": 54.6818288,
    "lng": 25.2928384,
    "extracted_address": "Maironio gatv\u0117",
    "formatted_address": "Maironio g., Vilnius, Vilniaus m. sav., Lithuania",
    "types": [
      "route"
    ],
    "source": "geocoded",
    "description": "Maironio gatv\u0117"
  },
  "13349689403": {
    "lat": 35.9210731,
    "lng": 139.6180558,
    "extracted_address": "This photo was taken inside the Panorama Plaza diorama hall at The Railway Museum (\u9244\u9053\u535a\u7269\u9928), Omiya, Saitama, Japan (3-47 \u014cnari-ch\u014d, \u014cmiya-ku, Saitama City).",
    "formatted_address": "Japan, \u3012330-0852 \u57fc\u7389\u770c\u3055\u3044\u305f\u307e\u5e02\u5927\u5bae\u533a\u5927\u6210\u753a\uff13\u4e01\u76ee\uff14\uff17",
    "types": [
      "establishment",
      "point_of_interest",
      "store"
    ],
    "source": "geocoded",
    "description": "Panorama Plaza diorama hall"
  },
  "5086239896": {
    "lat": 48.8552624,
    "lng": 2.3471972,
    "extracted_address": "Cit\u00e9 station",
    "formatted_address": "Cit\u00e9, 75004 Paris, France",
    "types": [
      "establishment",
      "point_of_interest",
      "subway_station",
      "transit_station"
    ],
    "source": "geocoded",
    "description": "Cit\u00e9 station"
  },
  "8474615403": {
    "lat": 40.7469183,
    "lng": -73.97019879999999,
    "extracted_address": "Freedom Plaza",
    "formatted_address": "Freedom Plaza, New York, NY 10016, USA",
    "types": [
      "establishment",
      "park",
      "point_of_interest"
    ],
    "source": "geocoded",
    "description": "Freedom Plaza"
  },
  "4182683298": {
    "lat": 38.03778,
    "lng": 12.5879274,
    "extracted_address": "Erice",
    "formatted_address": "91016 Erice, Free municipal consortium of Trapani, Italy",
    "types": [
      "locality",
      "political"
    ],
    "source": "geocoded",
    "description": "Erice"
  },
  "3578355376": {
    "lat": 36.4679829,
    "lng": -121.9074861,
    "extracted_address": "Garrapata State Park",
    "formatted_address": "Garrapata State Park, 34500 CA-1, Carmel, CA 93923, USA",
    "types": [
      "establishment",
      "park",
      "point_of_interest",
      "tourist_attraction"
    ],
    "source": "geocoded",
    "description": "Garrapata State Park"
  },
  "397104761": {
    "lat": 10.6687426,
    "lng": -61.51436769999999,
    "extracted_address": "Queen\u2019s Park Savannah",
    "formatted_address": "Queen's Park Savannah, 11 Queen's Park E, Port of Spain, Trinidad and Tobago",
    "types": [
      "establishment",
      "park",
      "point_of_interest",
      "tourist_attraction"
    ],
    "source": "geocoded",
    "description": "Queen\u2019s Park Savannah"
  },
  "9031231108": {
    "lat": 38.9055767,
    "lng": -94.6437511,
    "extracted_address": "Tomahawk Creek Trail bridge",
    "formatted_address": "Tomahawk Crk Trl, Kansas, USA",
    "types": [
      "route"
    ],
    "source": "geocoded",
    "description": "Tomahawk Creek Trail bridge"
  },
  "3239097412": {
    "lat": 48.3384917,
    "lng": 8.4607759,
    "extracted_address": "Graben",
    "formatted_address": "72275 Alpirsbach-Gr\u00e4ben, Germany",
    "types": [
      "political",
      "sublocality",
      "sublocality_level_1"
    ],
    "source": "geocoded",
    "description": "Graben"
  },
  "129841428": {
    "lat": 39.9574604,
    "lng": -75.181684,
    "extracted_address": "Cira Centre",
    "formatted_address": "Cira Center, 2929 Arch St, Philadelphia, PA 19104, USA",
    "types": [
      "premise",
      "street_address"
    ],
    "source": "geocoded",
    "description": "Cira Centre"
  },
  "4595464362": {
    "lat": 44.9404108,
    "lng": -93.0926034,
    "extracted_address": "Harriet Island Regional Park",
    "formatted_address": "Harriet Island Regional Park, 49 Harriet Island Rd, St Paul, MN 55107, USA",
    "types": [
      "establishment",
      "park",
      "point_of_interest"
    ],
    "source": "geocoded",
    "description": "Harriet Island Regional Park"
  },
  "5597507214": {
    "lat": 51.5072178,
    "lng": -0.1275862,
    "extracted_address": "London borough school",
    "formatted_address": "London, UK",
    "types": [
      "locality",
      "political"
    ],
    "source": "geocoded",
    "description": "London borough school"
  },
  "2500179023": {
    "lat": 34.0453371,
    "lng": -118.2360292,
    "extracted_address": "Traction Avenue",
    "formatted_address": "Traction Ave, Los Angeles, CA, USA",
    "types": [
      "route"
    ],
    "source": "geocoded",
    "description": "Traction Avenue"
  },
  "6955589443": {
    "lat": 34.055691,
    "lng": -118.2487702,
    "extracted_address": "DTLA",
    "formatted_address": "Downtown Los Angeles, Los Angeles, CA, USA",
    "types": [
      "neighborhood",
      "political"
    ],
    "source": "geocoded",
    "description": "DTLA"
  },
  "6780531613": {
    "lat": 41.966331,
    "lng": -87.63723329999999,
    "extracted_address": "Montrose Beach",
    "formatted_address": "Montrose Beach, Illinois, USA",
    "types": [
      "establishment",
      "natural_feature"
    ],
    "source": "geocoded",
    "description": "Montrose Beach"
  },
  "2220485647": {
    "lat": 39.9168038,
    "lng": 116.3971621,
    "extracted_address": "Forbidden City",
    "formatted_address": "4 Jing Shan Qian Jie, Dong Cheng Qu, Bei Jing Shi, China, 100009",
    "types": [
      "establishment",
      "point_of_interest",
      "tourist_attraction"
    ],
    "source": "geocoded",
    "description": "Forbidden City"
  },
  "3014182108": {
    "lat": 36.9891252,
    "lng": -79.9019873,
    "extracted_address": "Franklin County Government Center",
    "formatted_address": "1255 Franklin St, Rocky Mount, VA 24151, USA",
    "types": [
      "establishment",
      "local_government_office",
      "point_of_interest"
    ],
    "source": "geocoded",
    "description": "Franklin County Government Center"
  },
  "2042084815": {
    "lat": 52.3711487,
    "lng": 4.533354999999999,
    "extracted_address": "Zandvoort Beach Promenade",
    "formatted_address": "Zandvoort, Netherlands",
    "types": [
      "locality",
      "political"
    ],
    "source": "geocoded",
    "description": "Zandvoort Beach Promenade"
  },
  "14006146813": {
    "lat": 7.3547682,
    "lng": 134.4442823,
    "extracted_address": "Palau Pacific Resort",
    "formatted_address": "Koror, 96940, Palau",
    "types": [
      "establishment",
      "lodging",
      "point_of_interest"
    ],
    "source": "geocoded",
    "description": "Palau Pacific Resort"
  },
  "1659477928": {
    "lat": 35.7020186,
    "lng": 139.7678943,
    "extracted_address": "Kanda My\u014djin",
    "formatted_address": "2-ch\u014dme-16-2 Sotokanda, Chiyoda City, Tokyo 101-0021, Japan",
    "types": [
      "establishment",
      "place_of_worship",
      "point_of_interest",
      "tourist_attraction"
    ],
    "source": "geocoded",
    "description": "Kanda My\u014djin"
  },
  "3642427417": {
    "lat": 31.6283953,
    "lng": -7.998004000000001,
    "extracted_address": "Municipal Palace",
    "formatted_address": "Av. Mohammed V, Marrakech 40000, Morocco",
    "types": [
      "city_hall",
      "establishment",
      "local_government_office",
      "point_of_interest"
    ],
    "source": "geocoded",
    "description": "Municipal Palace"
  },
  "961578": {
    "lat": 42.3555076,
    "lng": -71.0565364,
    "extracted_address": "Boston Sports Pub",
    "formatted_address": "Boston, MA, USA",
    "types": [
      "locality",
      "political"
    ],
    "source": "geocoded",
    "description": "Boston Sports Pub"
  },
  "5936382077": {
    "lat": 52.1936373,
    "lng": 0.1273479,
    "extracted_address": "Cambridge Botanic Garden",
    "formatted_address": "Cambridge University Botanic Garden, 1 Brookside, Cambridge CB2 1JE, UK",
    "types": [
      "establishment",
      "park",
      "point_of_interest",
      "tourist_attraction"
    ],
    "source": "geocoded",
    "description": "Cambridge Botanic Garden"
  },
  "7291335624": {
    "lat": 24.9242943,
    "lng": -80.62783639999999,
    "extracted_address": "Islamorada",
    "formatted_address": "Islamorada, FL, USA",
    "types": [
      "locality",
      "political"
    ],
    "source": "geocoded",
    "description": "Islamorada"
  },
  "7174842037": {
    "lat": 24.7739,
    "lng": 110.49398,
    "extracted_address": "This appears to be in Yangshuo town, Guangxi Zhuang Autonomous Region, China\u2014specifically on/near West Street (X\u012b Ji\u0113) in Yangshuo County, with the characteristic karst hills rising directly behind the street.",
    "formatted_address": "QFFV+HH5, Xi Jie, Yang Shuo Xian, Gui Lin Shi, Guang Xi Zhuang Zu Zi Zhi Qu, China, 541900",
    "types": [
      "establishment",
      "point_of_interest"
    ],
    "source": "geocoded",
    "description": "West Street (X\u012b Ji\u0113"
  },
  "3177222884": {
    "lat": 9.9035224,
    "lng": -83.6834702,
    "extracted_address": "Turrialba-P\u00e9rez Zeled\u00f3n",
    "formatted_address": "Cartago Province, Turrialba, Costa Rica",
    "types": [
      "locality",
      "political"
    ],
    "source": "geocoded",
    "description": "Turrialba-P\u00e9rez Zeled\u00f3n"
  },
  "9880081374": {
    "lat": 59.40329679999999,
    "lng": 18.3263804,
    "extracted_address": "Vaxholm",
    "formatted_address": "Vaxholm, Sweden",
    "types": [
      "locality",
      "political"
    ],
    "source": "geocoded",
    "description": "Vaxholm"
  },
  "5481961530": {
    "lat": 40.4251245,
    "lng": -3.6902384,
    "extracted_address": "Plaza de Col\u00f3n",
    "formatted_address": "Pl. de Col\u00f3n, Madrid, Spain",
    "types": [
      "route"
    ],
    "source": "geocoded",
    "description": "Plaza de Col\u00f3n"
  },
  "3109247737": {
    "lat": 40.7593724,
    "lng": -73.9851694,
    "extracted_address": "Broadway crosswalk",
    "formatted_address": "Broadway, New York, USA",
    "types": [
      "route"
    ],
    "source": "geocoded",
    "description": "Broadway crosswalk"
  },
  "7772297086": {
    "lat": 13.6243853,
    "lng": 25.3553641,
    "extracted_address": "This image was taken at the UNAMID peacekeeping compound in El Fasher, North Darfur, Sudan.",
    "formatted_address": "Al Fashir, Sudan",
    "types": [
      "locality",
      "political"
    ],
    "source": "geocoded",
    "description": "UNAMID peacekeeping compound"
  },
  "3589957410": {
    "lat": 47.6094076,
    "lng": -122.3418358,
    "extracted_address": "Pike Place Market",
    "formatted_address": "85 Pike St, Seattle, WA 98101, USA",
    "types": [
      "establishment",
      "food",
      "grocery_or_supermarket",
      "point_of_interest",
      "restaurant",
      "store",
      "tourist_attraction"
    ],
    "source": "geocoded",
    "description": "Pike Place Market"
  },
  "8674311330": {
    "lat": 39.9494621,
    "lng": -75.1718915,
    "extracted_address": "Rittenhouse Square Park",
    "formatted_address": "Rittenhouse Square, 1800 Walnut St, Philadelphia, PA 19103, USA",
    "types": [
      "establishment",
      "park",
      "point_of_interest"
    ],
    "source": "geocoded",
    "description": "Rittenhouse Square Park"
  },
  "3437788035": {
    "lat": 43.7703981,
    "lng": 11.2580078,
    "extracted_address": "Palazzo del Bargello",
    "formatted_address": "Via del Proconsolo, 4, 50122 Firenze FI, Italy",
    "types": [
      "establishment",
      "museum",
      "point_of_interest",
      "tourist_attraction"
    ],
    "source": "geocoded",
    "description": "Palazzo del Bargello"
  },
  "2657523317": {
    "lat": 34.6501609,
    "lng": 135.3859025,
    "extracted_address": "Malaysia Pavilion",
    "formatted_address": "1-ch\u014dme-49 Yumeshimanaka, Konohana Ward, Osaka, 554-0044, Japan",
    "types": [
      "establishment",
      "point_of_interest"
    ],
    "source": "geocoded",
    "description": "Malaysia Pavilion"
  },
  "1557392107": {
    "lat": 41.8920906,
    "lng": 12.4864378,
    "extracted_address": "Roman Forum",
    "formatted_address": "00186 Rome, Metropolitan City of Rome Capital, Italy",
    "types": [
      "establishment",
      "museum",
      "point_of_interest",
      "tourist_attraction"
    ],
    "source": "geocoded",
    "description": "Roman Forum"
  },
  "161142762": {
    "lat": 30.2746652,
    "lng": -97.74035049999999,
    "extracted_address": "Texas State Capitol",
    "formatted_address": "1100 Congress Ave., Austin, TX 78701, USA",
    "types": [
      "establishment",
      "local_government_office",
      "point_of_interest",
      "tourist_attraction"
    ],
    "source": "geocoded",
    "description": "Texas State Capitol"
  },
  "400760123": {
    "lat": 41.0156725,
    "lng": 28.9648067,
    "extracted_address": "H\u00fcrrem Sultan Mausoleum",
    "formatted_address": "S\u00fcleymaniye, S\u00fcleymaniye Cami No:75, 34116 Fatih/\u0130stanbul, T\u00fcrkiye",
    "types": [
      "establishment",
      "point_of_interest"
    ],
    "source": "geocoded",
    "description": "H\u00fcrrem Sultan Mausoleum"
  },
  "1320922094": {
    "lat": 48.2020471,
    "lng": -2.9326435,
    "extracted_address": "A very strong clue is the instrument the musicians are playing: it\u2019s a Breton bombarde, almost always found in Bagado\u00f9 (Breton pipe\u2010band) ensembles in Brittany, France. Taken together with the parade setting and the style of the storefront (you can even make out a tricolor band above the window that\u2019s common on Breton shops), my best guess is that this shot was taken during the Festival Interceltique in Lorient, Brittany.  \n\nApproximate coordinates:  \nLatitude 47.75\u00b0 N  \nLongitude 3.36\u00b0 W",
    "formatted_address": "Brittany, France",
    "types": [
      "administrative_area_level_1",
      "political"
    ],
    "source": "geocoded",
    "description": "Festival Interceltique"
  },
  "2264517682": {
    "lat": 39.91584,
    "lng": 116.4506,
    "extracted_address": "Dongdaqiao Road",
    "formatted_address": "Dong Da Qiao Lu, Chao Yang Qu, Bei Jing Shi, China, 100020",
    "types": [
      "route"
    ],
    "source": "geocoded",
    "description": "Dongdaqiao Road"
  },
  "3367519850": {
    "lat": 21.4674584,
    "lng": -71.13891009999999,
    "extracted_address": "Grand Turk",
    "formatted_address": "Grand Turk, TKCA 1ZZ, Turks and Caicos Islands",
    "types": [
      "establishment",
      "natural_feature"
    ],
    "source": "geocoded",
    "description": "Grand Turk"
  },
  "5787620294": {
    "lat": -17.9284388,
    "lng": 25.857203,
    "extracted_address": "Victoria Falls Bridge",
    "formatted_address": "Victoria Falls Bridge, Zimbabwe Africa, Livingstone Way, Victoria Falls, Zimbabwe",
    "types": [
      "establishment",
      "point_of_interest",
      "tourist_attraction"
    ],
    "source": "geocoded",
    "description": "Victoria Falls Bridge"
  },
  "3858951022": {
    "lat": 28.3580628,
    "lng": -81.5590975,
    "extracted_address": "Disney\u2019s Hollywood Studios",
    "formatted_address": "Bay Lake, FL 34747, USA",
    "types": [
      "amusement_park",
      "establishment",
      "point_of_interest",
      "tourist_attraction"
    ],
    "source": "geocoded",
    "description": "Disney\u2019s Hollywood Studios"
  },
  "3667871009": {
    "lat": 32.4434174,
    "lng": -110.7881222,
    "extracted_address": "Mount Lemmon",
    "formatted_address": "Mt Lemmon, Summerhaven, AZ 85619, USA",
    "types": [
      "establishment",
      "natural_feature"
    ],
    "source": "geocoded",
    "description": "Mount Lemmon"
  },
  "162863290": {
    "lat": 48.8870754,
    "lng": 2.3393142,
    "extracted_address": "Rue Norvins",
    "formatted_address": "Rue Norvins, 75018 Paris, France",
    "types": [
      "route"
    ],
    "source": "geocoded",
    "description": "Rue Norvins"
  },
  "4151002246": {
    "lat": 37.6918842,
    "lng": 129.0213872,
    "extracted_address": "This looks exactly like the \u201cHand of Harmony\u201d sculpture on the Jeongdongjin coastal viewing platform in Gangneung, Gangwon-do, South Korea (approx. 37.761\u00b0 N, 129.093\u00b0 E).",
    "formatted_address": "Jeongdongjin-ri, Gangdong-myeon, Gangneung-si, Gangwon-do, South Korea",
    "types": [
      "political",
      "sublocality",
      "sublocality_level_3"
    ],
    "source": "geocoded",
    "description": "Hand of Harmony"
  },
  "5474543169": {
    "lat": 20.9124313,
    "lng": -100.743735,
    "extracted_address": "plaza next to the Tourist Office/Casa del Inquisidor",
    "formatted_address": "Aldama #1, Zona Centro, 37700 San Miguel de Allende, Gto., Mexico",
    "types": [
      "establishment",
      "point_of_interest",
      "tourist_attraction"
    ],
    "source": "geocoded",
    "description": "plaza next to the Tourist Office/Casa del Inquisidor"
  },
  "8413225261": {
    "lat": 41.9630306,
    "lng": -87.63818289999999,
    "extracted_address": "Montrose Harbor Marina",
    "formatted_address": "601 W Montrose Ave, Chicago, IL 60613, USA",
    "types": [
      "establishment",
      "point_of_interest"
    ],
    "source": "geocoded",
    "description": "Montrose Harbor Marina"
  },
  "2400817474": {
    "lat": 36.9677632,
    "lng": -112.0112907,
    "extracted_address": "Coyote Buttes North",
    "formatted_address": "Coyote Buttes, Arizona 86036, USA",
    "types": [
      "establishment",
      "natural_feature"
    ],
    "source": "geocoded",
    "description": "Coyote Buttes North"
  },
  "2302850654": {
    "lat": 51.2770331,
    "lng": 1.0837855,
    "extracted_address": "Canterbury\u2019s medieval city wall",
    "formatted_address": "Canterbury, UK",
    "types": [
      "locality",
      "political"
    ],
    "source": "geocoded",
    "description": "Canterbury\u2019s medieval city wall"
  },
  "3106038695": {
    "lat": 51.5188879,
    "lng": -0.1227724,
    "extracted_address": "Bloomsbury Square Gardens",
    "formatted_address": "Bloomsbury Square Garden, Bloomsbury Square, London WC1A 2NS, UK",
    "types": [
      "establishment",
      "park",
      "point_of_interest",
      "tourist_attraction"
    ],
    "source": "geocoded",
    "description": "Bloomsbury Square Gardens"
  },
  "10541286366": {
    "lat": 47.6205976,
    "lng": -122.3505055,
    "extracted_address": "Seattle Center",
    "formatted_address": "305 Harrison St, Seattle, WA 98109, USA",
    "types": [
      "establishment",
      "point_of_interest",
      "tourist_attraction"
    ],
    "source": "geocoded",
    "description": "Seattle Center"
  },
  "2954529438": {
    "lat": 43.722952,
    "lng": 10.396597,
    "extracted_address": "Leaning Tower",
    "formatted_address": "Piazza del Duomo, 56126 Pisa PI, Italy",
    "types": [
      "establishment",
      "point_of_interest",
      "tourist_attraction"
    ],
    "source": "geocoded",
    "description": "Leaning Tower"
  },
  "7553525110": {
    "lat": 40.7579747,
    "lng": -73.9855426,
    "extracted_address": "Times Square",
    "formatted_address": "Manhattan, NY 10036, USA",
    "types": [
      "establishment",
      "point_of_interest",
      "tourist_attraction"
    ],
    "source": "geocoded",
    "description": "Times Square"
  },
  "13744066983": {
    "lat": 20.8861251,
    "lng": -98.2062614,
    "extracted_address": "Benito Ju\u00e1rez municipal offices",
    "formatted_address": "92660 Benito Ju\u00e1rez Municipality, Ver., Mexico",
    "types": [
      "locality",
      "political"
    ],
    "source": "geocoded",
    "description": "Benito Ju\u00e1rez municipal offices"
  },
  "3623215891": {
    "lat": 41.88889229999999,
    "lng": -87.6243453,
    "extracted_address": "Michigan Avenue (DuSable) Bridge",
    "formatted_address": "DuSable Bridge, 333 Michigan Ave, Chicago, IL 60601, USA",
    "types": [
      "establishment",
      "point_of_interest",
      "tourist_attraction"
    ],
    "source": "geocoded",
    "description": "Michigan Avenue (DuSable) Bridge"
  },
  "4509567625": {
    "lat": 25.3062539,
    "lng": 83.0102193,
    "extracted_address": "Dashashwamedh Ghat",
    "formatted_address": "Dashashwamedh Ghat Rd, Ghats of Varanasi, Godowlia, Varanasi, Uttar Pradesh 221001, India",
    "types": [
      "establishment",
      "hindu_temple",
      "place_of_worship",
      "point_of_interest"
    ],
    "source": "geocoded",
    "description": "Dashashwamedh Ghat"
  },
  "283181248": {
    "lat": 48.853481,
    "lng": 2.3453802,
    "extracted_address": "Quai Saint\u2010Michel",
    "formatted_address": "Quai Saint-Michel, 75005 Paris, France",
    "types": [
      "route"
    ],
    "source": "geocoded",
    "description": "Quai Saint\u2010Michel"
  },
  "2096637293": {
    "lat": 51.52175,
    "lng": -0.12589,
    "extracted_address": "Russell Square Gardens",
    "formatted_address": "Russell Square, Russell Sq, London WC1B 5EH, UK",
    "types": [
      "establishment",
      "park",
      "point_of_interest",
      "tourist_attraction"
    ],
    "source": "geocoded",
    "description": "Russell Square Gardens"
  },
  "5895055568": {
    "lat": 36.7936526,
    "lng": 10.1643495,
    "extracted_address": "Great Mosque of Ez-Zitouna",
    "formatted_address": "Q5V7+FP9, Tunis, Tunisia",
    "types": [
      "establishment",
      "point_of_interest",
      "university"
    ],
    "source": "geocoded",
    "description": "Great Mosque of Ez-Zitouna"
  },
  "260660602": {
    "lat": 23.1290799,
    "lng": 113.26436,
    "extracted_address": "Guangzhou",
    "formatted_address": "Guangzhou, Guangdong Province, China",
    "types": [
      "locality",
      "political"
    ],
    "source": "geocoded",
    "description": "Guangzhou"
  },
  "5690346953": {
    "lat": 34.0164013,
    "lng": -118.4968895,
    "extracted_address": "Third Street Promenade",
    "formatted_address": "3rd Street Promenade, Santa Monica, CA 90401, USA",
    "types": [
      "route"
    ],
    "source": "geocoded",
    "description": "Third Street Promenade"
  },
  "5377580962": {
    "lat": 40.7646318,
    "lng": -73.9743251,
    "extracted_address": "The Plaza Hotel",
    "formatted_address": "768 5th Ave, New York, NY 10019, USA",
    "types": [
      "establishment",
      "lodging",
      "point_of_interest"
    ],
    "source": "geocoded",
    "description": "The Plaza Hotel"
  },
  "3141232303": {
    "lat": 51.5109998,
    "lng": -0.1142932,
    "extracted_address": "Temple station",
    "formatted_address": "Temple, Underground Ltd, Temple Station, Victoria Embankment, Temple, London WC2R 2PH, UK",
    "types": [
      "establishment",
      "point_of_interest",
      "subway_station",
      "transit_station"
    ],
    "source": "geocoded",
    "description": "Temple station"
  },
  "6127913719": {
    "lat": 34.1163029,
    "lng": -118.3427735,
    "extracted_address": "Hollywood Bowl Overlook",
    "formatted_address": "Jerome C. Daniel Overlook above the Hollywood Bowl, 7036 Mulholland Dr, Los Angeles, CA 90068, USA",
    "types": [
      "establishment",
      "park",
      "parking",
      "point_of_interest",
      "tourist_attraction"
    ],
    "source": "geocoded",
    "description": "Hollywood Bowl Overlook"
  },
  "6186170638": {
    "lat": 51.5310622,
    "lng": -0.0866091,
    "extracted_address": "Hoxton",
    "formatted_address": "Hoxton, London, UK",
    "types": [
      "administrative_area_level_4",
      "political"
    ],
    "source": "geocoded",
    "description": "Hoxton"
  },