{
  "5764250917": {
    "lat": 35.7147651,
    "lng": 139.7966553,
    "extracted_address": "Senso-ji Temple",
    "formatted_address": "2-ch\u014dme-3-1 Asakusa, Taito City, Tokyo 111-0032, Japan",
    "types": [
      "establishment",
      "place_of_worship",
      "point_of_interest",
      "tourist_attraction"
    ],
    "source": "geocoded",
    "description": "Senso-ji Temple"
  },
  "7281876710": {
    "lat": 48.8548825,
    "lng": 2.3474928,
    "extracted_address": "\u00cele de la Cit\u00e9",
    "formatted_address": "\u00cele de la Cit\u00e9, Paris, France",
    "types": [
      "establishment",
      "natural_feature"
    ],
    "source": "geocoded",
    "description": "\u00cele de la Cit\u00e9"
  },
  "7159800926": {
    "lat": 48.8673634,
    "lng": 2.3634884,
    "extracted_address": "Place de la R\u00e9publique, Paris, France",
    "formatted_address": "Pl. de la R\u00e9publique, Paris, France",
    "types": [
      "route"
    ],
    "source": "geocoded",
    "description": "Place de la R\u00e9publique"
  },
  "756531584": {
    "lat": 37.7463042,
    "lng": -119.5309256,
    "extracted_address": "Half Dome cables route",
    "formatted_address": "Half Dome Cables, Half Dome Trl, TUOLUMNE MEADOWS, CA 95389, USA",
    "types": [
      "establishment",
      "park",
      "point_of_interest"
    ],
    "source": "geocoded",
    "description": "Half Dome cables route"
  },
  "5077445230": {
    "lat": 45.400023,
    "lng": -71.894407,
    "extracted_address": "Mexi & Co",
    "formatted_address": "297 Rue King Ouest, Sherbrooke, QC J1H 1R2, Canada",
    "types": [
      "establishment",
      "food",
      "point_of_interest",
      "restaurant"
    ],
    "source": "geocoded",
    "description": "Mexi & Co"
  },
  "182341219": {
    "lat": 52.50450900000001,
    "lng": 13.3379001,
    "extracted_address": "Europa-Center",
    "formatted_address": "Tauentzienstra\u00dfe 9-12, 10789 Berlin, Germany",
    "types": [
      "establishment",
      "point_of_interest",
      "shopping_mall"
    ],
    "source": "geocoded",
    "description": "Europa-Center"
  },
  "7692193950": {
    "lat": 51.6503222,
    "lng": 5.0469573,
    "extracted_address": "Efteling theme park",
    "formatted_address": "Europalaan 1, 5171 KW Kaatsheuvel, Netherlands",
    "types": [
      "amusement_park",
      "establishment",
      "point_of_interest",
      "tourist_attraction"
    ],
    "source": "geocoded",
    "description": "Efteling theme park"
  },
  "480372482": {
    "lat": 45.4658434,
    "lng": 9.1899401,
    "extracted_address": "Galleria Vittorio Emanuele II",
    "formatted_address": "20123 Milan, Metropolitan City of Milan, Italy",
    "types": [
      "establishment",
      "point_of_interest",
      "shopping_mall",
      "tourist_attraction"
    ],
    "source": "geocoded",
    "description": "Galleria Vittorio Emanuele II"
  },
  "3247860886": {
    "lat": 53.38112899999999,
    "lng": -1.470085,
    "extracted_address": "Sheffield",
    "formatted_address": "Sheffield, UK",
    "types": [
      "locality",
      "political"
    ],
    "source": "geocoded",
    "description": "Sheffield"
  },
  "39672922": {
    "lat": 45.4384761,
    "lng": 10.9929582,
    "extracted_address": "Piazza Bra",
    "formatted_address": "P.za Bra, Verona VR, Italy",
    "types": [
      "route"
    ],
    "source": "geocoded",
    "description": "Piazza Bra"
  },
  "1351246086": {
    "lat": 33.315241,
    "lng": 44.3660671,
    "extracted_address": "Baghdad",
    "formatted_address": "Baghdad, Baghdad Governorate, Iraq",
    "types": [
      "locality",
      "political"
    ],
    "source": "geocoded",
    "description": "Baghdad"
  },
  "4881727444": {
    "lat": 37.7623715,
    "lng": -122.4002712,
    "extracted_address": "Near the 18th Street pedestrian footbridge over US-101 in Potrero Hill, San Francisco, California, USA",
    "formatted_address": "18th St, San Francisco, CA, USA",
    "types": [
      "route"
    ],
    "source": "geocoded",
    "description": "18th Street pedestrian footbridge"
  },
  "3227947036": {
    "lat": 18.9324806,
    "lng": 72.8315166,
    "extracted_address": "Flora Fountain",
    "formatted_address": "Veer Nariman Road, Mahatma Gandhi Road, Kala Ghoda, Fort, Mumbai, Maharashtra 400001, India",
    "types": [
      "establishment",
      "point_of_interest",
      "tourist_attraction"
    ],
    "source": "geocoded",
    "description": "Flora Fountain"
  },
  "4016777484": {
    "lat": 43.23260440000001,
    "lng": -4.7468755,
    "extracted_address": "Sotres",
    "formatted_address": "Sotres, 33554 Cabrales, Asturias, Spain",
    "types": [
      "locality",
      "political"
    ],
    "source": "geocoded",
    "description": "Sotres"
  },
  "285969802": {
    "lat": 40.6992753,
    "lng": -74.0394328,
    "extracted_address": "Ellis Island Immigration Museum",
    "formatted_address": "Ellis Is, Jersey City, NJ 07305, USA",
    "types": [
      "establishment",
      "museum",
      "point_of_interest"
    ],
    "source": "geocoded",
    "description": "Ellis Island Immigration Museum"
  },
  "511802589": {
    "lat": 40.752614,
    "lng": -73.419844,
    "extracted_address": "Adventureland",
    "formatted_address": "2245 Broadhollow Rd, Farmingdale, NY 11735, USA",
    "types": [
      "amusement_park",
      "establishment",
      "point_of_interest",
      "tourist_attraction"
    ],
    "source": "geocoded",
    "description": "Adventureland"
  },
  "556199541": {
    "lat": 12.2960243,
    "lng": 77.1675963,
    "extracted_address": "Gaganachukki Falls",
    "formatted_address": "Gaganachukki Falls Rd, Malavalli, Karnataka 571437, India",
    "types": [
      "establishment",
      "point_of_interest",
      "tourist_attraction"
    ],
    "source": "geocoded",
    "description": "Gaganachukki Falls"
  },
  "6875708677": {
    "lat": 35.665289,
    "lng": 139.726374,
    "extracted_address": "National Art Center",
    "formatted_address": "7-ch\u014dme-22-2 Roppongi, Minato City, Tokyo 106-8558, Japan",
    "types": [
      "establishment",
      "museum",
      "point_of_interest"
    ],
    "source": "geocoded",
    "description": "National Art Center"
  },
  "3436537095": {
    "lat": 40.6688363,
    "lng": -111.8246557,
    "extracted_address": "Holladay",
    "formatted_address": "Holladay, UT, USA",
    "types": [
      "locality",
      "political"
    ],
    "source": "geocoded",
    "description": "Holladay"
  },
  "6292826": {
    "lat": 40.8381465,
    "lng": 14.2589849,
    "extracted_address": "Stazione Marittima",
    "formatted_address": "Stazione Marittima, Stazione Marittima Molo Angioino, 80133 Napoli NA, Italy",
    "types": [
      "establishment",
      "point_of_interest",
      "transit_station"
    ],
    "source": "geocoded",
    "description": "Stazione Marittima"
  },
  "452289167": {
    "lat": 30.74480789999999,
    "lng": 79.4912552,
    "extracted_address": "Badrinath Temple",
    "formatted_address": "Badri to Mata Murti road, Badrinath, Uttarakhand 246422, India",
    "types": [
      "establishment",
      "hindu_temple",
      "place_of_worship",
      "point_of_interest",
      "tourist_attraction"
    ],
    "source": "geocoded",
    "description": "Badrinath Temple"
  },
  "265352838": {
    "lat": 33.8881489,
    "lng": -118.4092903,
    "extracted_address": "Manhattan Beach",
    "formatted_address": "Manhattan Beach, CA, USA",
    "types": [
      "locality",
      "political"
    ],
    "source": "geocoded",
    "description": "Manhattan Beach"
  },
  "2790764148": {
    "lat": 51.51875159999999,
    "lng": -0.0814374,
    "extracted_address": "Liverpool Street Station",
    "formatted_address": "Liverpool Street, Liverpool St, London EC2M 7PY, UK",
    "types": [
      "establishment",
      "point_of_interest",
      "train_station",
      "transit_station"
    ],
    "source": "geocoded",
    "description": "Liverpool Street Station"
  },
  "443568113": {
    "lat": 34.668587,
    "lng": 135.7843007,
    "extracted_address": "Yakushi-ji",
    "formatted_address": "457 Nishinoky\u014dch\u014d, Nara, 630-8563, Japan",
    "types": [
      "establishment",
      "place_of_worship",
      "point_of_interest",
      "tourist_attraction"
    ],
    "source": "geocoded",
    "description": "Yakushi-ji"
  },
  "7237017308": {
    "lat": 40.7092649,
    "lng": -74.011262,
    "extracted_address": "Zuccotti Park",
    "formatted_address": "Zuccotti Park, Cedar St, New York, NY 10006, USA",
    "types": [
      "establishment",
      "park",
      "point_of_interest",
      "tourist_attraction"
    ],
    "source": "geocoded",
    "description": "Zuccotti Park"
  },
  "1422104961": {
    "lat": 5.4815596,
    "lng": 10.4271347,
    "extracted_address": "Bafoussam",
    "formatted_address": "Bafoussam, Cameroon",
    "types": [
      "locality",
      "political"
    ],
    "source": "geocoded",
    "description": "Bafoussam"
  },
  "4745840637": {
    "lat": 25.0422731,
    "lng": 121.543591,
    "extracted_address": "MRT Zhongxiao Fuxing Station",
    "formatted_address": "MRT Zhongxiao Fuxing Sta., Da\u2019an District, Taipei City, Taiwan 106",
    "types": [
      "establishment",
      "point_of_interest",
      "transit_station"
    ],
    "source": "geocoded",
    "description": "MRT Zhongxiao Fuxing Station"
  },
  "976532479": {
    "lat": 51.5034599,
    "lng": -0.2241906,
    "extracted_address": "Shepherd\u2019s Bush Empire",
    "formatted_address": "211 Shepherd's Bush Grn, London W12 8TT, UK",
    "types": [
      "establishment",
      "point_of_interest"
    ],
    "source": "geocoded",
    "description": "Shepherd\u2019s Bush Empire"
  },
  "165070370": {
    "lat": 27.2997344,
    "lng": -80.2715159,
    "extracted_address": "Savannas Preserve State Park",
    "formatted_address": "Savannas Preserve State Park Environmental Education Center, 2541 SE Walton Rd, Port St. Lucie, FL 34952, USA",
    "types": [
      "establishment",
      "park",
      "point_of_interest",
      "tourist_attraction"
    ],
    "source": "geocoded",
    "description": "Savannas Preserve State Park"
  },
  "3427341325": {
    "lat": 64.3127094,
    "lng": -20.300721,
    "extracted_address": "Strokkur Geyser",
    "formatted_address": "8M7X+3PJ, Hafnart\u00fan, 806 Selfoss, Iceland",
    "types": [
      "establishment",
      "point_of_interest",
      "tourist_attraction"
    ],
    "source": "geocoded",
    "description": "Strokkur Geyser"
  },
  "3480155072": {
    "lat": 34.6458874,
    "lng": -86.67563940000001,
    "extracted_address": "Marshall Space Flight Center",
    "formatted_address": "Martin Rd SW, Huntsville, AL 35808, USA",
    "types": [
      "establishment",
      "point_of_interest",
      "tourist_attraction"
    ],
    "source": "geocoded",
    "description": "Marshall Space Flight Center"
  },
  "2290726072": {
    "lat": 30.265905,
    "lng": -97.7350325,
    "extracted_address": "East 6th Street",
    "formatted_address": "E 6th St, Austin, TX, USA",
    "types": [
      "route"
    ],
    "source": "geocoded",
    "description": "East 6th Street"
  },
  "13963887305": {
    "lat": 16.9345369,
    "lng": 121.1363619,
    "extracted_address": "Banaue Rice Terraces",
    "formatted_address": "Banaue, Ifugao, Philippines",
    "types": [
      "establishment",
      "point_of_interest",
      "tourist_attraction"
    ],
    "source": "geocoded",
    "description": "Banaue Rice Terraces"
  },
  "682744340": {
    "lat": 47.8608804,
    "lng": -123.9348331,
    "extracted_address": "Hoh Rainforest",
    "formatted_address": "Hoh Rain Forest, 18113 Upper Hoh Rd, Forks, WA 98331, USA",
    "types": [
      "establishment",
      "park",
      "point_of_interest",
      "tourist_attraction",
      "travel_agency"
    ],
    "source": "geocoded",
    "description": "Hoh Rainforest"
  },
  "4672989265": {
    "lat": 24.4373484,
    "lng": 118.097855,
    "extracted_address": "Xiamen University",
    "formatted_address": "422 Si Ming Nan Lu, Si Ming Qu, Xia Men Shi, Fu Jian Sheng, China, 361005",
    "types": [
      "establishment",
      "point_of_interest",
      "university"
    ],
    "source": "geocoded",
    "description": "Xiamen University"
  },
  "5736082154": {
    "lat": 33.7611653,
    "lng": -84.3856723,
    "extracted_address": "John Marshall Law School",
    "formatted_address": "245 Peachtree Center Ave NE # 1900, Atlanta, GA 30303, USA",
    "types": [
      "establishment",
      "point_of_interest",
      "school"
    ],
    "source": "geocoded",
    "description": "John Marshall Law School"
  },
  "2893104391": {
    "lat": 33.7879265,
    "lng": -84.37216819999999,
    "extracted_address": "Piedmont Park",
    "formatted_address": "Piedmont Park, Atlanta, GA 30309, USA",
    "types": [
      "establishment",
      "park",
      "point_of_interest",
      "tourist_attraction"
    ],
    "source": "geocoded",
    "description": "Piedmont Park"
  },
  "10537366026": {
    "lat": -8.348291699999999,
    "lng": 116.0384335,
    "extracted_address": "Gili Trawangan",
    "formatted_address": "Gili Trawangan, Gili Indah, Pemenang, North Lombok Regency, West Nusa Tenggara, Indonesia",
    "types": [
      "establishment",
      "natural_feature"
    ],
    "source": "geocoded",
    "description": "Gili Trawangan"
  },
  "2846936237": {
    "lat": 59.927029,
    "lng": 10.700865,
    "extracted_address": "Vigeland Sculpture Park",
    "formatted_address": "The Vigeland Park, Nobels gate 32, 0268 Oslo, Norway",
    "types": [
      "establishment",
      "museum",
      "park",
      "point_of_interest",
      "tourist_attraction"
    ],
    "source": "geocoded",
    "description": "Vigeland Sculpture Park"
  },
  "4716047404": {
    "lat": 43.6560612,
    "lng": -79.380301,
    "extracted_address": "Yonge\u2013Dundas Square",
    "formatted_address": "1 Dundas St E, Toronto, ON M5B 2R8, Canada",
    "types": [
      "establishment",
      "point_of_interest"
    ],
    "source": "geocoded",
    "description": "Yonge\u2013Dundas Square"
  },
  "3903204544": {
    "lat": -8.8033395,
    "lng": 115.2337011,
    "extracted_address": "Grand Hyatt Bali",
    "formatted_address": "Grand Hyatt Bali, Kawasan Wisata, Jl. Nusa Dua, Benoa, Kec. Kuta Sel., Kabupaten Badung, Bali 80363, Indonesia",
    "types": [
      "premise",
      "street_address"
    ],
    "source": "geocoded",
    "description": "Grand Hyatt Bali"
  },
  "3641518435": {
    "lat": 39.1011667,
    "lng": -84.5179805,
    "extracted_address": "Duke Energy Center",
    "formatted_address": "525 Elm St, Cincinnati, OH 45202, USA",
    "types": [
      "establishment",
      "point_of_interest"
    ],
    "source": "geocoded",
    "description": "Duke Energy Center"
  },
  "13461766705": {
    "lat": -43.49105,
    "lng": 147.1422945,
    "extracted_address": "Cape Bruny Lighthouse",
    "formatted_address": "Cape Bruny Lighthouse Tours, 1750 Lighthouse Rd, South Bruny TAS 7150, Australia",
    "types": [
      "establishment",
      "museum",
      "park",
      "point_of_interest",
      "tourist_attraction",
      "travel_agency"
    ],
    "source": "geocoded",
    "description": "Cape Bruny Lighthouse"
  },
  "7769850426": {
    "lat": 29.9627574,
    "lng": -90.06775359999999,
    "extracted_address": "Louis Armstrong Park",
    "formatted_address": "Louis Armstrong Park, 701 N Rampart St, New Orleans, LA 70116, USA",
    "types": [
      "establishment",
      "park",
      "point_of_interest",
      "tourist_attraction"
    ],
    "source": "geocoded",
    "description": "Louis Armstrong Park"
  },
  "7276598480": {
    "lat": 42.576358,
    "lng": -71.6050028,
    "extracted_address": "Moore Army Airfield (Fort Devens), Massachusetts, USA",
    "formatted_address": "Ayer, MA 01432, USA",
    "types": [
      "establishment",
      "point_of_interest"
    ],
    "source": "geocoded",
    "description": "Moore Army Airfield"
  },
  "1521426546": {
    "lat": 40.5721302,
    "lng": -73.9793298,
    "extracted_address": "Coney Island Beach",
    "formatted_address": "Coney Island Beach, Brooklyn, NY, USA",
    "types": [
      "establishment",
      "natural_feature"
    ],
    "source": "geocoded",
    "description": "Coney Island Beach"
  },
  "5628690825": {
    "lat": 42.8093534,
    "lng": -1.6444476,
    "extracted_address": "Plaza de los Fueros",
    "formatted_address": "Plaza de los Fueros, Pl. Fueros de Navarra, s/n, 31008 Pamplona, Navarra, Spain",
    "types": [
      "establishment",
      "park",
      "point_of_interest",
      "tourist_attraction"
    ],
    "source": "geocoded",
    "description": "Plaza de los Fueros"
  },
  "8815795798": {
    "lat": 37.559277,
    "lng": 126.9777029,
    "extracted_address": "Namdaemun Market",
    "formatted_address": "21 Namdaemunsijang 4-gil, Jung District, Seoul, South Korea",
    "types": [
      "establishment",
      "point_of_interest",
      "tourist_attraction"
    ],
    "source": "geocoded",
    "description": "Namdaemun Market"
  },
  "352380518": {
    "lat": 36.2678855,
    "lng": -112.3535253,
    "extracted_address": "Grand Canyon National Park",
    "formatted_address": "Grand Canyon National Park, Arizona, USA",
    "types": [
      "establishment",
      "park",
      "point_of_interest",
      "tourist_attraction"
    ],
    "source": "geocoded",
    "description": "Grand Canyon National Park"
  },
  "1386606787": {
    "lat": -33.9065612,
    "lng": 18.419714,
    "extracted_address": "Nobel Square",
    "formatted_address": "Watershed, 17 Dock Rd, Victoria & Alfred Waterfront, Cape Town, 8002, South Africa",
    "types": [
      "establishment",
      "point_of_interest",
      "tourist_attraction"
    ],
    "source": "geocoded",
    "description": "Nobel Square"
  },
  "9001135290": {
    "lat": 38.7870573,
    "lng": -109.5994053,
    "extracted_address": "Devil\u2019s Garden",
    "formatted_address": "Devils Gdn Trl, Utah, USA",
    "types": [
      "route"
    ],
    "source": "geocoded",
    "description": "Devil\u2019s Garden"
  },
  "6779799981": {
    "lat": 1.2837575,
    "lng": 103.8591065,
    "extracted_address": "Marina Bay Sands",
    "formatted_address": "10 Bayfront Ave, Singapore 018956",
    "types": [
      "establishment",
      "food",
      "lodging",
      "point_of_interest",
      "restaurant",
      "tourist_attraction"
    ],
    "source": "geocoded",
    "description": "Marina Bay Sands"
  },
  "427836902": {
    "lat": 40.7825547,
    "lng": -73.9655834,
    "extracted_address": "Central Park",
    "formatted_address": "Central Park, New York, NY, USA",
    "types": [
      "establishment",
      "park",
      "point_of_interest",
      "tourist_attraction"
    ],
    "source": "geocoded",
    "description": "Central Park"
  },
  "5136072764": {
    "lat": 32.0804846,
    "lng": 34.7806198,
    "extracted_address": "Rabin Square",
    "formatted_address": "Rabin Square, Tel Aviv-Yafo, Israel",
    "types": [
      "establishment",
      "park",
      "point_of_interest"
    ],
    "source": "geocoded",
    "description": "Rabin Square"
  },
  "12714152683": {
    "lat": 36.7580878,
    "lng": 139.5987466,
    "extracted_address": "T\u014dsh\u014d-g\u016b Shrine",
    "formatted_address": "2301 Sannai, Nikko, Tochigi 321-1431, Japan",
    "types": [
      "establishment",
      "place_of_worship",
      "point_of_interest",
      "tourist_attraction"
    ],
    "source": "geocoded",
    "description": "T\u014dsh\u014d-g\u016b Shrine"
  },
  "1574809957": {
    "lat": 57.4745344,
    "lng": -4.2282874,
    "extracted_address": "Riverside path beside the River Ness, Inverness, Highland, Scotland, UK",
    "formatted_address": "2 Alexander Pl, Inverness IV3 5NQ, UK",
    "types": [
      "establishment",
      "point_of_interest",
      "tourist_attraction"
    ],
    "source": "geocoded",
    "description": "Riverside path beside the River Ness"
  },
  "5314749745": {
    "lat": 40.7579747,
    "lng": -73.9855426,
    "extracted_address": "Times Square",
    "formatted_address": "Manhattan, NY 10036, USA",
    "types": [
      "establishment",
      "point_of_interest",
      "tourist_attraction"
    ],
    "source": "geocoded",
    "description": "Times Square"
  },
  "3974322793": {
    "lat": 40.6868416,
    "lng": -72.9986804,
    "extracted_address": "Fire Island National Seashore",
    "formatted_address": "Fire Island National Seashore, Ocean Beach, NY 11770, USA",
    "types": [
      "establishment",
      "park",
      "point_of_interest"
    ],
    "source": "geocoded",
    "description": "Fire Island National Seashore"
  },
  "6279251255": {
    "lat": 48.8606111,
    "lng": 2.337644,
    "extracted_address": "Louvre Museum",
    "formatted_address": "75001 Paris, France",
    "types": [
      "establishment",
      "museum",
      "point_of_interest",
      "tourist_attraction"
    ],
    "source": "geocoded",
    "description": "Louvre Museum"
  },
  "358066578": {
    "lat": 43.644334,
    "lng": -79.4180164,
    "extracted_address": "Queen Street West",
    "formatted_address": "Queen St W, Toronto, ON, Canada",
    "types": [
      "route"
    ],
    "source": "geocoded",
    "description": "Queen Street West"
  },
  "2088763517": {
    "lat": 22.419625,
    "lng": 114.2067606,
    "extracted_address": "The Chinese University of Hong Kong",
    "formatted_address": "Ma Liu Shui, Hong Kong",
    "types": [
      "bar",
      "establishment",
      "point_of_interest",
      "university"
    ],
    "source": "geocoded",
    "description": "The Chinese University of Hong Kong"
  },
  "284743606": {
    "lat": 38.9012445,
    "lng": -77.0507271,
    "extracted_address": "George Washington University Hospital",
    "formatted_address": "900 23rd St NW, Washington, DC 20037, USA",
    "types": [
      "establishment",
      "health",
      "hospital",
      "point_of_interest"
    ],
    "source": "geocoded",
    "description": "George Washington University Hospital"
  },
  "2694726216": {
    "lat": 40.7022422,
    "lng": -73.9958601,
    "extracted_address": "Brooklyn Bridge Park",
    "formatted_address": "Brooklyn Bridge Park, Brooklyn, NY 11201, USA",
    "types": [
      "establishment",
      "park",
      "point_of_interest",
      "tourist_attraction"
    ],
    "source": "geocoded",
    "description": "Brooklyn Bridge Park"
  },
  "2767333569": {
    "lat": 37.7951195,
    "lng": -122.3952007,
    "extracted_address": "Justin Herman Plaza",
    "formatted_address": "Embarcadero Plaza, Market St &, Steuart St, San Francisco, CA 94105, USA",
    "types": [
      "establishment",
      "park",
      "point_of_interest"
    ],
    "source": "geocoded",
    "description": "Justin Herman Plaza"
  },
  "2870241487": {
    "lat": 42.3132414,
    "lng": -71.1141118,
    "extracted_address": "Jamaica Plain",
    "formatted_address": "Jamaica Plain, Boston, MA, USA",
    "types": [
      "neighborhood",
      "political"
    ],
    "source": "geocoded",
    "description": "Jamaica Plain"
  },
  "9393468013": {
    "lat": 51.20178749999999,
    "lng": 0.3942485000000001,
    "extracted_address": "The Hop Farm Country Park",
    "formatted_address": "The Hop Farm, Maidstone Rd, Beltring, Tonbridge TN12 6QF, UK",
    "types": [
      "campground",
      "establishment",
      "lodging",
      "park",
      "point_of_interest",
      "rv_park"
    ],
    "source": "geocoded",
    "description": "The Hop Farm Country Park"
  },
  "2884204484": {
    "lat": 40.7614327,
    "lng": -73.97762159999999,
    "extracted_address": "The Museum of Modern Art (MoMA",
    "formatted_address": "11 W 53rd St, New York, NY 10019, USA",
    "types": [
      "art_gallery",
      "establishment",
      "museum",
      "point_of_interest",
      "tourist_attraction"
    ],
    "source": "geocoded",
    "description": "The Museum of Modern Art (MoMA"
  },
  "5348320913": {
    "lat": -33.8567844,
    "lng": 151.2152967,
    "extracted_address": "Sydney Opera House",
    "formatted_address": "Bennelong Point, Sydney NSW 2000, Australia",
    "types": [
      "establishment",
      "point_of_interest",
      "tourist_attraction"
    ],
    "source": "geocoded",
    "description": "Sydney Opera House"
  },
  "7962973752": {
    "lat": 44.9781701,
    "lng": -93.2558665,
    "extracted_address": "Guthrie Theater",
    "formatted_address": "818 S 2nd St, Minneapolis, MN 55415, USA",
    "types": [
      "establishment",
      "point_of_interest",
      "tourist_attraction"
    ],
    "source": "geocoded",
    "description": "Guthrie Theater"
  },
  "1097920068": {
    "lat": 49.2726609,
    "lng": -123.1351387,
    "extracted_address": "Granville Island Public Market",
    "formatted_address": "Public Market, 1689 Johnston St, Vancouver, BC V6H 3S2, Canada",
    "types": [
      "establishment",
      "point_of_interest"
    ],
    "source": "geocoded",
    "description": "Granville Island Public Market"
  },
  "1388076875": {
    "lat": 51.4272874,
    "lng": -0.9696317999999998,
    "extracted_address": "Mace off-licence",
    "formatted_address": "435 Basingstoke Rd, Reading RG2 0JF, UK",
    "types": [
      "establishment",
      "liquor_store",
      "point_of_interest",
      "store"
    ],
    "source": "geocoded",
    "description": "Mace off-licence"
  },
  "2738387084": {
    "lat": 51.5634575,
    "lng": 3.4998639,
    "extracted_address": "Domburg",
    "formatted_address": "Domburg, Netherlands",
    "types": [
      "locality",
      "political"
    ],
    "source": "geocoded",
    "description": "Domburg"
  },
  "1386768513": {
    "lat": 48.853069,
    "lng": 2.3390941,
    "extracted_address": "Cour du Commerce Saint-Andr\u00e9",
    "formatted_address": "Cr du Commerce Saint-Andr\u00e9, 75006 Paris, France",
    "types": [
      "route"
    ],
    "source": "geocoded",
    "description": "Cour du Commerce Saint-Andr\u00e9"
  },
  "5561023319": {
    "lat": 53.5695273,
    "lng": 9.8224289,
    "extracted_address": "K\u00f6rnerstra\u00dfe and Simrockstra\u00dfe",
    "formatted_address": "Simrockstra\u00dfe, 22 Hamburg-Altona, Germany",
    "types": [
      "route"
    ],
    "source": "geocoded",
    "description": "K\u00f6rnerstra\u00dfe and Simrockstra\u00dfe"
  },
  "9309870009": {
    "lat": 51.0499922,
    "lng": 3.7303853,
    "extracted_address": "Ghent",
    "formatted_address": "Ghent, Belgium",
    "types": [
      "locality",
      "political"
    ],
    "source": "geocoded",
    "description": "Ghent"
  },
  "5908041850": {
    "lat": 39.4703038,
    "lng": -0.3763498,
    "extracted_address": "Plaza del Ayuntamiento",
    "formatted_address": "Sant Francesc, Ciutat Vella, 46002 Val\u00e8ncia, Spain",
    "types": [
      "establishment",
      "point_of_interest",
      "tourist_attraction"
    ],
    "source": "geocoded",
    "description": "Plaza del Ayuntamiento"
  },
  "4280912022": {
    "lat": 18.575483,
    "lng": -72.29511149999999,
    "extracted_address": "Toussaint Louverture International Airport",
    "formatted_address": "Aeroport International Toussaint Louverture, Boulevard Toussaint Louverture Aeroport International Haiti Tabarre, P\u00f2toprens 1792, Haiti",
    "types": [
      "airport",
      "establishment",
      "point_of_interest"
    ],
    "source": "geocoded",
    "description": "Toussaint Louverture International Airport"
  },
  "329033253": {
    "lat": 45.6514817,
    "lng": 13.7733333,
    "extracted_address": "Saint Spyridon Serbian Orthodox Church, Trieste, Italy",
    "formatted_address": "Via S. Spiridione, 9, 34122 Trieste TS, Italy",
    "types": [
      "church",
      "establishment",
      "place_of_worship",
      "point_of_interest",
      "tourist_attraction"
    ],
    "source": "geocoded",
    "description": "Saint Spyridon Serbian Orthodox Church"
  },
  "3881805795": {
    "lat": 31.24758,
    "lng": 121.44859,
    "extracted_address": "M50 (50 Moganshan Road",
    "formatted_address": "m50, 50 Mo Gan Shan Lu, Pu Tuo Qu, Shang Hai Shi, China, 200071",
    "types": [
      "street_address",
      "subpremise"
    ],
    "source": "geocoded",
    "description": "M50 (50 Moganshan Road"
  },
  "311141742": {
    "lat": 37.579617,
    "lng": 126.977041,
    "extracted_address": "Gyeongbokgung Palace",
    "formatted_address": "161 Sajik-ro, Jongno District, Seoul, South Korea",
    "types": [
      "establishment",
      "point_of_interest",
      "tourist_attraction"
    ],
    "source": "geocoded",
    "description": "Gyeongbokgung Palace"
  },
  "2321003896": {
    "lat": 37.9838096,
    "lng": 23.7275388,
    "extracted_address": "Athens",
    "formatted_address": "Athens, Greece",
    "types": [
      "locality",
      "political"
    ],
    "source": "geocoded",
    "description": "Athens"
  },
  "1973617618": {
    "lat": 53.95582,
    "lng": -1.07994,
    "extracted_address": "Clifford\u2019s Tower",
    "formatted_address": "Tower St, York YO1 9SA, UK",
    "types": [
      "establishment",
      "point_of_interest",
      "tourist_attraction"
    ],
    "source": "geocoded",
    "description": "Clifford\u2019s Tower"
  },
  "5548423806": {
    "lat": 38.9831651,
    "lng": -3.9312612,
    "extracted_address": "Calle Alarcos",
    "formatted_address": "C. de Alarcos, 13001 Ciudad Real, Spain",
    "types": [
      "route"
    ],
    "source": "geocoded",
    "description": "Calle Alarcos"
  },
  "6002559536": {
    "lat": 48.1089931,
    "lng": 11.5004047,
    "extracted_address": "Best estimate: Waldfriedhof (Forest Cemetery) in Munich, Germany  \nApproximate coordinates: 48.113\u00b0 N, 11.507\u00b0 E",
    "formatted_address": "F\u00fcrstenrieder Str. 288, 81377 M\u00fcnchen, Germany",
    "types": [
      "cemetery",
      "establishment",
      "point_of_interest"
    ],
    "source": "geocoded",
    "description": "Waldfriedhof"
  },
  "1139613029": {
    "lat": 59.33235649999999,
    "lng": 18.0645449,
    "extracted_address": "Sergels Torg",
    "formatted_address": "111 57 Stockholm, Sweden",
    "types": [
      "establishment",
      "point_of_interest",
      "tourist_attraction"
    ],
    "source": "geocoded",
    "description": "Sergels Torg"
  },
  "11175831776": {
    "lat": 46.484583,
    "lng": 30.7326,
    "extracted_address": "Odesa Oblast State Administration building",
    "formatted_address": "Odesa Oblast, Ukraine",
    "types": [
      "administrative_area_level_1",
      "political"
    ],
    "source": "geocoded",
    "description": "Odesa Oblast State Administration building"
  },
  "5765699878": {
    "lat": 51.5669188,
    "lng": -0.1467755,
    "extracted_address": "Highgate Cemetery",
    "formatted_address": "Swain's Ln, London N6 6PJ, UK",
    "types": [
      "cemetery",
      "establishment",
      "point_of_interest",
      "travel_agency"
    ],
    "source": "geocoded",
    "description": "Highgate Cemetery"
  },
  "3511424366": {
    "lat": 57.58205549999999,
    "lng": -5.4036944,
    "extracted_address": "Spidean Coire nan Clach",
    "formatted_address": "Beinn Eighe - Spidean Coire nan Clach, Achnasheen IV22 2ET, UK",
    "types": [
      "establishment",
      "natural_feature"
    ],
    "source": "geocoded",
    "description": "Spidean Coire nan Clach"
  },
  "523909268": {
    "lat": 45.5050482,
    "lng": -73.5571422,
    "extracted_address": "Place d\u2019Armes",
    "formatted_address": "Pl. d'Armes, Montr\u00e9al, QC H2Y, Canada",
    "types": [
      "route"
    ],
    "source": "geocoded",
    "description": "Place d\u2019Armes"
  },
  "7467989216": {
    "lat": 51.5073638,
    "lng": -0.1641135,
    "extracted_address": "Hyde Park",
    "formatted_address": "Hyde Park, London, UK",
    "types": [
      "establishment",
      "park",
      "point_of_interest",
      "tourist_attraction"
    ],
    "source": "geocoded",
    "description": "Hyde Park"
  },
  "5948658911": {
    "lat": 47.5216205,
    "lng": -123.2606792,
    "extracted_address": "Mount Ellinor",
    "formatted_address": "Mt. Ellinor, Washington 98548, USA",
    "types": [
      "establishment",
      "natural_feature"
    ],
    "source": "geocoded",
    "description": "Mount Ellinor"
  },
  "3007603560": {
    "lat": 37.76462,
    "lng": -122.422425,
    "extracted_address": "Roxie Theater",
    "formatted_address": "3117 16th St, San Francisco, CA 94103, USA",
    "types": [
      "establishment",
      "movie_theater",
      "point_of_interest"
    ],
    "source": "geocoded",
    "description": "Roxie Theater"
  },
  "345199822": {
    "lat": 9.403422599999999,
    "lng": -0.8424159999999999,
    "extracted_address": "Tamale",
    "formatted_address": "Tamale, Ghana",
    "types": [
      "locality",
      "political"
    ],
    "source": "geocoded",
    "description": "Tamale"
  },
  "6961386470": {
    "lat": 19.4326077,
    "lng": -99.133208,
    "extracted_address": "Mexico City",
    "formatted_address": "Mexico City, CDMX, Mexico",
    "types": [
      "locality",
      "political"
    ],
    "source": "geocoded",
    "description": "Mexico City"
  },
  "3993491561": {
    "lat": 37.726563,
    "lng": -119.5397514,
    "extracted_address": "Happy Isles / Mist-Trail trailhead",
    "formatted_address": "Mist Trail, California, USA",
    "types": [
      "route"
    ],
    "source": "geocoded",
    "description": "Happy Isles / Mist-Trail trailhead"
  },
  "2927129825": {
    "lat": 49.3592091,
    "lng": -0.8554058999999999,
    "extracted_address": "Normandy American Cemetery and Memorial",
    "formatted_address": "Normandy American Cemetery, Rte du Cimetiere Americain, 14710 Colleville-sur-Mer, France",
    "types": [
      "cemetery",
      "church",
      "establishment",
      "park",
      "place_of_worship",
      "point_of_interest",
      "tourist_attraction"
    ],
    "source": "geocoded",
    "description": "Normandy American Cemetery and Memorial"
  },
  "5473969715": {
    "lat": 48.85085369999999,
    "lng": 2.3455566,
    "extracted_address": "Latin Quarter",
    "formatted_address": "Latin Quarter, Paris, France",
    "types": [
      "neighborhood",
      "political"
    ],
    "source": "geocoded",
    "description": "Latin Quarter"
  },
  "8706699810": {
    "lat": 41.4233906,
    "lng": -74.0622764,
    "extracted_address": "Storm King Art Center",
    "formatted_address": "1 Museum Rd, New Windsor, NY 12553, USA",
    "types": [
      "establishment",
      "museum",
      "point_of_interest"
    ],
    "source": "geocoded",
    "description": "Storm King Art Center"
  },
  "4332725043": {
    "lat": 50.4503596,
    "lng": 30.5245025,
    "extracted_address": "Kyiv",
    "formatted_address": "Kyiv, Ukraine, 02000",
    "types": [
      "locality",
      "political"
    ],
    "source": "geocoded",
    "description": "Kyiv"
  },
  "5034153774": {
    "lat": 38.9674728,
    "lng": -77.0451865,
    "extracted_address": "Rock Creek Park",
    "formatted_address": "Rock Creek Park, Washington, DC, USA",
    "types": [
      "establishment",
      "park",
      "point_of_interest",
      "tourist_attraction"
    ],
    "source": "geocoded",
    "description": "Rock Creek Park"
  },
  "7521123428": {
    "lat": 35.7173897,
    "lng": 139.8067113,
    "extracted_address": "Sakura-bashi Bridge",
    "formatted_address": "Sakurabashi Bridge, 5-ch\u014dme-1-1 Muk\u014djima, Sumida City, Tokyo 131-0033, Japan",
    "types": [
      "establishment",
      "point_of_interest"
    ],
    "source": "geocoded",
    "description": "Sakura-bashi Bridge"
  },
  "4101969711": {
    "lat": 37.7873305,
    "lng": -122.4095502,
    "extracted_address": "Hotel G",
    "formatted_address": "386 Geary St, San Francisco, CA 94102, USA",
    "types": [
      "establishment",
      "lodging",
      "point_of_interest"
    ],
    "source": "geocoded",
    "description": "Hotel G"
  },
  "178966363": {
    "lat": 59.9131016,
    "lng": 10.7412686,
    "extracted_address": "Karl Johans lock",
    "formatted_address": "Karl Johans gt., Oslo, Norway",
    "types": [
      "route"
    ],
    "source": "geocoded",
    "description": "Karl Johans lock"
  },
  "72918630": {
    "lat": 55.789154,
    "lng": 37.681131,
    "extracted_address": "Sokolniki station",
    "formatted_address": "Sokol'niki Station, Moskva, Russia, 107014",
    "types": [
      "establishment",
      "point_of_interest",
      "transit_station"
    ],
    "source": "geocoded",
    "description": "Sokolniki station"
  },
  "6817087374": {
    "lat": -27.477428,
    "lng": 153.02308,
    "extracted_address": "Clem Jones Promenade",
    "formatted_address": "Clem Jones Promenade, South Brisbane QLD, Australia",
    "types": [
      "route"
    ],
    "source": "geocoded",
    "description": "Clem Jones Promenade"
  },
  "8406771903": {
    "lat": 38.8943392,
    "lng": -77.0202927,
    "extracted_address": "600 block of Indiana Avenue NW",
    "formatted_address": "600 Indiana Ave NW, Washington, DC 20004, USA",
    "types": [
      "street_address"
    ],
    "source": "geocoded",
    "description": "600 block of Indiana Avenue NW"
  },
  "216885820": {
    "lat": 34.6950233,
    "lng": -84.4836126,
    "extracted_address": "Gilmer County Courthouse",
    "formatted_address": "1 Broad St, Ellijay, GA 30540, USA",
    "types": [
      "establishment",
      "local_government_office",
      "point_of_interest"
    ],
    "source": "geocoded",
    "description": "Gilmer County Courthouse"
  },
  "8203034515": {
    "lat": 49.2820219,
    "lng": -123.1089179,
    "extracted_address": "Victory Square Cenotaph",
    "formatted_address": "150 W Hastings St, Vancouver, BC V6B 1H5, Canada",
    "types": [
      "establishment",
      "point_of_interest",
      "premise",
      "street_address"
    ],
    "source": "geocoded",
    "description": "Victory Square Cenotaph"
  },
  "4441179970": {
    "lat": 37.2939104,
    "lng": 127.2025664,
    "extracted_address": "Everland Resort",
    "formatted_address": "199 Everland-ro, Pogok-eup, Cheoin-gu, Yongin-si, Gyeonggi-do, South Korea",
    "types": [
      "amusement_park",
      "establishment",
      "point_of_interest",
      "tourist_attraction"
    ],
    "source": "geocoded",
    "description": "Everland Resort"
  },
  "5862873516": {
    "lat": 41.3846412,
    "lng": 2.1716466,
    "extracted_address": "Courtyard of the Ateneu Barcelon\u00e8s",
    "formatted_address": "Carrer de la Canuda, 6, Ciutat Vella, 08002 Barcelona, Spain",
    "types": [
      "establishment",
      "point_of_interest",
      "tourist_attraction"
    ],
    "source": "geocoded",
    "description": "Courtyard of the Ateneu Barcelon\u00e8s"
  },
  "8306613715": {
    "lat": 40.6558508,
    "lng": -73.9624774,
    "extracted_address": "Drummer\u2019s Grove",
    "formatted_address": "Drummer's Grove, Prospect Park, Brooklyn, NY 11225, USA",
    "types": [
      "establishment",
      "park",
      "point_of_interest",
      "tourist_attraction"
    ],
    "source": "geocoded",
    "description": "Drummer\u2019s Grove"
  },
  "523184139": {
    "lat": 48.8849216,
    "lng": 2.3426033,
    "extracted_address": "Montmartre Funicular",
    "formatted_address": "Funiculaire de Montmartre, 75018 Paris, France",
    "types": [
      "route"
    ],
    "source": "geocoded",
    "description": "Montmartre Funicular"
  },
  "2903159948": {
    "lat": 48.08265189999999,
    "lng": -121.4840112,
    "extracted_address": "Mount Baker\u2013Snoqualmie National Forest",
    "formatted_address": "Mt. Baker-Snoqualmie National Forest, Marblemount, WA 98267, USA",
    "types": [
      "establishment",
      "park",
      "point_of_interest",
      "tourist_attraction"
    ],
    "source": "geocoded",
    "description": "Mount Baker\u2013Snoqualmie National Forest"
  },
  "6995040775": {
    "lat": 34.0907088,
    "lng": -118.3374723,
    "extracted_address": "The Honda-sponsored 2012 L.A. Marathon finished on Ocean Avenue in Santa Monica. The surroundings (palm trees, coastal light, road markings) match that finish-line area. A reasonable pinpoint for where this photo was likely taken is on Ocean Avenue just north of Santa Monica Boulevard, Santa Monica, California:\n\nApproximate coordinates: 34.0102\u00b0 N, 118.4967\u00b0 W",
    "formatted_address": "Santa Monica Blvd, California, USA",
    "types": [
      "route"
    ],
    "source": "geocoded",
    "description": "Ocean Avenue"
  },
  "3031378811": {
    "lat": -21.2209911,
    "lng": 55.5579927,
    "extracted_address": "Plaine-des-Cafres",
    "formatted_address": "La Plaine des Cafres, Le Tampon 97430, R\u00e9union",
    "types": [
      "political",
      "sublocality",
      "sublocality_level_1"
    ],
    "source": "geocoded",
    "description": "Plaine-des-Cafres"
  },
  "109444762": {
    "lat": 32.7827075,
    "lng": -117.2514611,
    "extracted_address": "Best guess: Mission Beach neighborhood of San Diego, California, near the ocean-front courts around Santa Clara Pl.  \nApproximate coordinates: 32.773\u00b0 N, 117.255\u00b0 W.",
    "formatted_address": "Santa Clara Pl, San Diego, CA 92109, USA",
    "types": [
      "route"
    ],
    "source": "geocoded",
    "description": "Santa Clara Pl."
  },
  "5112324575": {
    "lat": 38.9909627,
    "lng": -77.0262918,
    "extracted_address": "Pacci\u2019s Neapolitan Pizzeria",
    "formatted_address": "8113 Georgia Ave, Silver Spring, MD 20910, USA",
    "types": [
      "bar",
      "establishment",
      "food",
      "point_of_interest",
      "restaurant"
    ],
    "source": "geocoded",
    "description": "Pacci\u2019s Neapolitan Pizzeria"
  },
  "7488269670": {
    "lat": 42.4173159,
    "lng": -7.685452799999999,
    "extracted_address": "Monasterio de Santo Estevo",
    "formatted_address": "Mosteiro de San Estevo, Santo Estevo de Ribas de Sil, 1, 32164 O Covelo, Ourense, Spain",
    "types": [
      "establishment",
      "place_of_worship",
      "point_of_interest"
    ],
    "source": "geocoded",
    "description": "Monasterio de Santo Estevo"
  },
  "628184053": {
    "lat": 65.01105369999999,
    "lng": -16.7485275,
    "extracted_address": "Askja",
    "formatted_address": "Askja, 660, Iceland",
    "types": [
      "establishment",
      "natural_feature"
    ],
    "source": "geocoded",
    "description": "Askja"
  },
  "3357571272": {
    "lat": -38.2336568,
    "lng": 145.0491222,
    "extracted_address": "Seaside building",
    "formatted_address": "2/49 Mornington-Tyabb Rd, Mornington VIC 3931, Australia",
    "types": [
      "establishment",
      "general_contractor",
      "home_goods_store",
      "point_of_interest",
      "store"
    ],
    "source": "geocoded",
    "description": "Seaside building"
  },
  "5183593914": {
    "lat": 41.3209139,
    "lng": -76.27576859999999,
    "extracted_address": "Ganoga Glen",
    "formatted_address": "Ganoga Glen, Fairmount Township, PA 17814, USA",
    "types": [
      "establishment",
      "natural_feature"
    ],
    "source": "geocoded",
    "description": "Ganoga Glen"
  },
  "8307089134": {
    "lat": 43.7677856,
    "lng": 11.2553108,
    "extracted_address": "Uffizi Gallery",
    "formatted_address": "Piazzale degli Uffizi, 6, 50122 Firenze FI, Italy",
    "types": [
      "establishment",
      "museum",
      "point_of_interest",
      "tourist_attraction"
    ],
    "source": "geocoded",
    "description": "Uffizi Gallery"
  },
  "515336129": {
    "lat": -8.5068536,
    "lng": 115.2624778,
    "extracted_address": "Ubud",
    "formatted_address": "Ubud, Gianyar Regency, Bali, Indonesia",
    "types": [
      "locality",
      "political"
    ],
    "source": "geocoded",
    "description": "Ubud"
  },
  "4937975485": {
    "lat": 50.9028189,
    "lng": -0.5145246,
    "extracted_address": "South Downs Way",
    "formatted_address": "S Downs Way, United Kingdom",
    "types": [
      "route"
    ],
    "source": "geocoded",
    "description": "South Downs Way"
  },
  "5839161640": {
    "lat": 38.0061979,
    "lng": -78.7012696,
    "extracted_address": "Miller School",
    "formatted_address": "Old Main, 1000 Samuel Miller Loop, Charlottesville, VA 22903, USA",
    "types": [
      "establishment",
      "point_of_interest",
      "school",
      "secondary_school"
    ],
    "source": "geocoded",
    "description": "Miller School"
  },
  "31700873": {
    "lat": 34.6889851,
    "lng": 135.8398158,
    "extracted_address": "T\u014ddai-ji Temple",
    "formatted_address": "406-1 Z\u014dshich\u014d, Nara, 630-8587, Japan",
    "types": [
      "establishment",
      "place_of_worship",
      "point_of_interest",
      "tourist_attraction"
    ],
    "source": "geocoded",
    "description": "T\u014ddai-ji Temple"
  },
  "10003206806": {
    "lat": 43.8242073,
    "lng": 5.3071448,
    "extracted_address": "Bonnieux",
    "formatted_address": "84480 Bonnieux, France",
    "types": [
      "locality",
      "political"
    ],
    "source": "geocoded",
    "description": "Bonnieux"
  },
  "11985456966": {
    "lat": -12.9237266,
    "lng": -38.5080816,
    "extracted_address": "Igreja de Nosso Senhor do Bonfim",
    "formatted_address": "Largo do Bonfim, s/n - Bonfim, Salvador - BA, 40415-475, Brazil",
    "types": [
      "church",
      "establishment",
      "place_of_worship",
      "point_of_interest",
      "tourist_attraction"
    ],
    "source": "geocoded",
    "description": "Igreja de Nosso Senhor do Bonfim"
  },
  "4218701807": {
    "lat": 51.5169569,
    "lng": -0.1991141,
    "extracted_address": "Talbot Road",
    "formatted_address": "Talbot Rd, London, UK",
    "types": [
      "route"
    ],
    "source": "geocoded",
    "description": "Talbot Road"
  },
  "563945657": {
    "lat": 41.2950791,
    "lng": -96.1052136,
    "extracted_address": "Tranquility Park",
    "formatted_address": "Tranquility Park, 12222 W Maple Rd, Omaha, NE 68164, USA",
    "types": [
      "establishment",
      "park",
      "point_of_interest",
      "tourist_attraction"
    ],
    "source": "geocoded",
    "description": "Tranquility Park"
  },
  "4341776736": {
    "lat": 47.6092349,
    "lng": -122.3394822,
    "extracted_address": "Downtown Seattle, Washington, USA (Hard Rock Caf\u00e9 on Pike Street near 1st Avenue).",
    "formatted_address": "116 Pike St, Seattle, WA 98101, USA",
    "types": [
      "bar",
      "establishment",
      "food",
      "point_of_interest",
      "restaurant"
    ],
    "source": "geocoded",
    "description": "Hard Rock Caf\u00e9"
  },
  "5395039226": {
    "lat": 40.7479925,
    "lng": -74.0047649,
    "extracted_address": "The High Line",
    "formatted_address": "The High Line, New York, NY 10011, USA",
    "types": [
      "establishment",
      "park",
      "point_of_interest",
      "tourist_attraction"
    ],
    "source": "geocoded",
    "description": "The High Line"
  },
  "1799241727": {
    "lat": 51.49671499999999,
    "lng": -0.1763672,
    "extracted_address": "Natural History Museum",
    "formatted_address": "Cromwell Rd, South Kensington, London SW7 5BD, UK",
    "types": [
      "establishment",
      "library",
      "museum",
      "point_of_interest",
      "tourist_attraction"
    ],
    "source": "geocoded",
    "description": "Natural History Museum"
  },
  "968293102": {
    "lat": 40.7112588,
    "lng": -74.00780449999999,
    "extracted_address": "Most likely location: in front of the former J&R Music & Computer World store on Park Row, beside City Hall Park in Lower Manhattan, New York City.  \nApproximate coordinates: 40.7115\u00b0 N, 74.0060\u00b0 W.",
    "formatted_address": "15 Park Row, New York, NY 10038, USA",
    "types": [
      "electronics_store",
      "establishment",
      "furniture_store",
      "home_goods_store",
      "point_of_interest",
      "store"
    ],
    "source": "geocoded",
    "description": "J&R Music & Computer World"
  },
  "97344146": {
    "lat": 41.4036299,
    "lng": 2.1743558,
    "extracted_address": "Bas\u00edlica de la Sagrada Fam\u00edlia",
    "formatted_address": "Carrer de Mallorca, 401, L'Eixample, 08013 Barcelona, Spain",
    "types": [
      "church",
      "establishment",
      "place_of_worship",
      "point_of_interest",
      "tourist_attraction"
    ],
    "source": "geocoded",
    "description": "Bas\u00edlica de la Sagrada Fam\u00edlia"
  },
  "2500808809": {
    "lat": 54.7001729,
    "lng": 17.3169313,
    "extracted_address": "S\u0142owi\u0144ski National Park",
    "formatted_address": "S\u0142owi\u0144ski National Park, Bohater\u00f3w Warszawy 1A, 76-214 Smo\u0142dzino, Poland",
    "types": [
      "establishment",
      "park",
      "point_of_interest",
      "tourist_attraction"
    ],
    "source": "geocoded",
    "description": "S\u0142owi\u0144ski National Park"
  },
  "415815332": {
    "lat": 35.6184665,
    "lng": 139.7397048,
    "extracted_address": "Shinagawa Shrine",
    "formatted_address": "3-ch\u014dme-7-15 Kitashinagawa, Shinagawa City, Tokyo 140-0001, Japan",
    "types": [
      "establishment",
      "place_of_worship",
      "point_of_interest",
      "tourist_attraction"
    ],
    "source": "geocoded",
    "description": "Shinagawa Shrine"
  },
  "1461522249": {
    "lat": 34.0458857,
    "lng": -118.5648608,
    "extracted_address": "Getty Villa",
    "formatted_address": "17985 Pacific Coast Hwy, Pacific Palisades, CA 90272, USA",
    "types": [
      "establishment",
      "museum",
      "point_of_interest",
      "tourist_attraction"
    ],
    "source": "geocoded",
    "description": "Getty Villa"
  },
  "9640910501": {
    "lat": 51.5550821,
    "lng": -0.1083998,
    "extracted_address": "Emirates Stadium",
    "formatted_address": "Hornsey Rd, London N7 7AJ, UK",
    "types": [
      "establishment",
      "point_of_interest",
      "stadium"
    ],
    "source": "geocoded",
    "description": "Emirates Stadium"
  },
  "456712325": {
    "lat": 1.2815683,
    "lng": 103.8636132,
    "extracted_address": "Gardens by the Bay",
    "formatted_address": "18 Marina Gardens Dr, Gardens by the Bay, Singapore 018953",
    "types": [
      "establishment",
      "park",
      "point_of_interest",
      "tourist_attraction"
    ],
    "source": "geocoded",
    "description": "Gardens by the Bay"
  },
  "4535662044": {
    "lat": 35.6604139,
    "lng": 139.698578,
    "extracted_address": "Shibuya Center-Gai pedestrian street",
    "formatted_address": "Shibuya Center-Gai, Udagawach\u014d, Shibuya, Tokyo 150-0042, Japan",
    "types": [
      "route"
    ],
    "source": "geocoded",
    "description": "Shibuya Center-Gai pedestrian street"
  },
  "446995789": {
    "lat": -13.5050343,
    "lng": -71.98014429999999,
    "extracted_address": "Sacsayhuam\u00e1n",
    "formatted_address": "Sacsayhuaman, Peru",
    "types": [
      "neighborhood",
      "political"
    ],
    "source": "geocoded",
    "description": "Sacsayhuam\u00e1n"
  },
  "1439764921": {
    "lat": 36.886147,
    "lng": -76.3154339,
    "extracted_address": "Whitehurst Hall",
    "formatted_address": "1715 W 48th St, Norfolk, VA 23508, USA",
    "types": [
      "establishment",
      "point_of_interest"
    ],
    "source": "geocoded",
    "description": "Whitehurst Hall"
  },
  "266092150": {
    "lat": 31.6085038,
    "lng": -100.3541575,
    "extracted_address": "Goodyear Proving Grounds",
    "formatted_address": "11570 N, N US Hwy 277, San Angelo, TX 76905, USA",
    "types": [
      "car_repair",
      "establishment",
      "point_of_interest"
    ],
    "source": "geocoded",
    "description": "Goodyear Proving Grounds"
  },
  "2412894098": {
    "lat": -28.5754799,
    "lng": -70.7574389,
    "extracted_address": "The photo was most likely taken in front of the Centro Cultural-Teatro Velarde on Calle Prat in Vallenar, Regi\u00f3n de Atacama, Chile (approximate coordinates : 28.5726\u00b0 S, 70.7580\u00b0 W).",
    "formatted_address": "Vallenar, Atacama, Chile",
    "types": [
      "locality",
      "political"
    ],
    "source": "geocoded",
    "description": "Centro Cultural-Teatro Velarde"
  },
  "4134663298": {
    "lat": 45.045842,
    "lng": 6.304705999999999,
    "extracted_address": "La Grave",
    "formatted_address": "La Grave, France",
    "types": [
      "locality",
      "political"
    ],
    "source": "geocoded",
    "description": "La Grave"
  },
  "311861136": {
    "lat": 31.297826,
    "lng": 120.634168,
    "extracted_address": "Master of the Nets Garden",
    "formatted_address": "Master of the Nets Garden, Gu Su Qu, Su Zhou Shi, China, 215005",
    "types": [
      "establishment",
      "park",
      "point_of_interest",
      "tourist_attraction"
    ],
    "source": "geocoded",
    "description": "Master of the Nets Garden"
  },
  "1896392812": {
    "lat": 37.9004816,
    "lng": -122.6444263,
    "extracted_address": "Stinson Beach",
    "formatted_address": "Stinson Beach, CA 94970, USA",
    "types": [
      "locality",
      "political"
    ],
    "source": "geocoded",
    "description": "Stinson Beach"
  },
  "8474673006": {
    "lat": 10.7668915,
    "lng": 106.6928262,
    "extracted_address": "B\u00f9i Vi\u1ec7n Street",
    "formatted_address": "B\u00f9i Vi\u1ec7n, Ph\u1ea1m Ng\u0169 L\u00e3o, Qu\u1eadn 1, H\u1ed3 Ch\u00ed Minh, Vietnam",
    "types": [
      "route"
    ],
    "source": "geocoded",
    "description": "B\u00f9i Vi\u1ec7n Street"
  },
  "5596097823": {
    "lat": -33.3434426,
    "lng": 149.0286951,
    "extracted_address": "Pinnacle Lookout",
    "formatted_address": "1194 Stairs Rd, Canobolas NSW 2800, Australia",
    "types": [
      "establishment",
      "point_of_interest",
      "tourist_attraction"
    ],
    "source": "geocoded",
    "description": "Pinnacle Lookout"
  },
  "175835676": {
    "lat": 52.357256,
    "lng": 4.882328,
    "extracted_address": "Museumplein",
    "formatted_address": "Museumplein, 1071 DJ Amsterdam, Netherlands",
    "types": [
      "establishment",
      "park",
      "point_of_interest"
    ],
    "source": "geocoded",
    "description": "Museumplein"
  },
  "539648958": {
    "lat": 40.77977292866424,
    "lng": -109.5215920845883,
    "extracted_address": "Green River Formation",
    "formatted_address": "Green River, United States",
    "types": [
      "establishment",
      "natural_feature"
    ],
    "source": "geocoded",
    "description": "Green River Formation"
  },
  "280847097": {
    "lat": 51.26666669999999,
    "lng": -0.5,
    "extracted_address": "North Downs",
    "formatted_address": "North Downs, West Clandon, Guildford GU4 7UJ, UK",
    "types": [
      "establishment",
      "natural_feature"
    ],
    "source": "geocoded",
    "description": "North Downs"
  },
  "4496629668": {
    "lat": 35.69915747004764,
    "lng": 139.766569741022,
    "extracted_address": "Along the Kanda River promenade near Waseda in Shinjuku, Tokyo, Japan.",
    "formatted_address": "Kanda River, Tokyo, Japan",
    "types": [
      "establishment",
      "natural_feature"
    ],
    "source": "geocoded",
    "description": "Kanda River promenade"
  },
  "6042645653": {
    "lat": 39.1984106,
    "lng": -119.9321199,
    "extracted_address": "Sand Harbor",
    "formatted_address": "Sand Harbor State Park, 2005 NV-28, Incline Village, NV 89452, USA",
    "types": [
      "establishment",
      "park",
      "point_of_interest",
      "tourist_attraction"
    ],
    "source": "geocoded",
    "description": "Sand Harbor"
  },
  "3905584273": {
    "lat": 25.0329694,
    "lng": 121.5654177,
    "extracted_address": "Best guess: the photo was taken in the courtyard / playground of Zhong-Zheng Junior High School, Taipei, Taiwan (approx. 25.042\u00b0 N, 121.520\u00b0 E).",
    "formatted_address": "Taipei, Taiwan",
    "types": [
      "colloquial_area",
      "locality",
      "political"
    ],
    "source": "geocoded",
    "description": "Zhong-Zheng Junior High School"
  },
  "4789622814": {
    "lat": 37.7689203,
    "lng": -122.482977,
    "extracted_address": "Golden Gate Park",
    "formatted_address": "Golden Gate Park, San Francisco, CA, USA",
    "types": [
      "establishment",
      "park",
      "point_of_interest",
      "tourist_attraction"
    ],
    "source": "geocoded",
    "description": "Golden Gate Park"
  },
  "3128699639": {
    "lat": 28.6966388,
    "lng": -13.8332311,
    "extracted_address": "Parque Natural de las Dunas de Corralejo",
    "formatted_address": "Zona norte de las dunas de Corralejo, 35660 La Oliva, Las Palmas, Spain",
    "types": [
      "establishment",
      "park",
      "point_of_interest",
      "tourist_attraction"
    ],
    "source": "geocoded",
    "description": "Parque Natural de las Dunas de Corralejo"
  },
  "458444286": {
    "lat": 35.66044249999999,
    "lng": 139.7283806,
    "extracted_address": "A neighborhood Shinto shrine in Tokyo, Japan",
    "formatted_address": "SHINTO SHRINE, 6-ch\u014dme-10 Roppongi, Minato City, Tokyo 106-0032, Japan",
    "types": [
      "street_address",
      "subpremise"
    ],
    "source": "geocoded",
    "description": "Shinto shrine"
  },
  "6925234617": {
    "lat": 30.0430587,
    "lng": 31.239915,
    "extracted_address": "Mohamed Mahmoud Street",
    "formatted_address": "Mohammed Mahmoud, Cairo Governorate, Egypt",
    "types": [
      "route"
    ],
    "source": "geocoded",
    "description": "Mohamed Mahmoud Street"
  },
  "4543358981": {
    "lat": 38.2195512,
    "lng": -77.5981171,
    "extracted_address": "Spotsylvania Court House Battlefield",
    "formatted_address": "9550 Grant Dr, Spotsylvania Courthouse, VA 22553, USA",
    "types": [
      "establishment",
      "point_of_interest",
      "tourist_attraction"
    ],
    "source": "geocoded",
    "description": "Spotsylvania Court House Battlefield"
  },
  "9546093889": {
    "lat": 52.5009119,
    "lng": -6.5648962,
    "extracted_address": "The banners behind the rider include the words \u201cWexford\u201d and \u201cStafford Lynch\u201d, both commonly seen at open-road cycling events organised by Wexford Wheelers in south-east Ireland. The club generally finishes its road races on a quiet stretch of the R744 between Enniscorthy and New Ross, near the hamlet of Davidstown.\n\nBest-guess location: the R744 outside Davidstown, County Wexford, Ireland  \nApproximate coordinates: 52.495\u00b0 N, 6.598\u00b0 W",
    "formatted_address": "R744, Enniscorthy, Co. Wexford, Ireland",
    "types": [
      "route"
    ],
    "source": "geocoded",
    "description": "R744"
  },
  "6074064623": {
    "lat": 43.4261809,
    "lng": -73.71234079999999,
    "extracted_address": "Lake George",
    "formatted_address": "Lake George, NY 12845, USA",
    "types": [
      "locality",
      "political"
    ],
    "source": "geocoded",
    "description": "Lake George"
  },
  "4329535990": {
    "lat": -35.785625,
    "lng": 137.551788,
    "extracted_address": "Emu Ridge Eucalyptus Oil Distillery",
    "formatted_address": "691 Willsons Rd, MacGillivray SA 5223, Australia",
    "types": [
      "bar",
      "cafe",
      "establishment",
      "food",
      "grocery_or_supermarket",
      "health",
      "point_of_interest",
      "store",
      "tourist_attraction"
    ],
    "source": "geocoded",
    "description": "Emu Ridge Eucalyptus Oil Distillery"
  },
  "4916969136": {
    "lat": 43.6173195,
    "lng": -116.2033316,
    "extracted_address": "Freak Alley Gallery",
    "formatted_address": "210 N 9th St, Boise, ID 83702, USA",
    "types": [
      "art_gallery",
      "establishment",
      "point_of_interest"
    ],
    "source": "geocoded",
    "description": "Freak Alley Gallery"
  },
  "8251381751": {
    "lat": 41.00838400000001,
    "lng": 28.977878,
    "extracted_address": "Basilica Cistern",
    "formatted_address": "Alemdar, Yerebatan Cd. 1/3, 34110 Fatih/\u0130stanbul, T\u00fcrkiye",
    "types": [
      "establishment",
      "museum",
      "point_of_interest",
      "tourist_attraction"
    ],
    "source": "geocoded",
    "description": "Basilica Cistern"
  },
  "325392247": {
    "lat": 51.3217416,
    "lng": -116.1860049,
    "extracted_address": "Best guess: Larch Valley, just above Moraine Lake in Banff National Park, Alberta, Canada  \nApproximate coordinates: 51.359\u00b0 N, 116.264\u00b0 W",
    "formatted_address": "Moraine Lake, Improvement District No. 9, AB T0L 1E0, Canada",
    "types": [
      "establishment",
      "natural_feature"
    ],
    "source": "geocoded",
    "description": "Larch Valley"
  },
  "379604236": {
    "lat": 43.3238369,
    "lng": -1.9866066,
    "extracted_address": "Bas\u00edlica de Santa Mar\u00eda del Coro",
    "formatted_address": "31 de Agosto Kalea, 46, 20003 Donostia, Gipuzkoa, Spain",
    "types": [
      "church",
      "establishment",
      "place_of_worship",
      "point_of_interest",
      "tourist_attraction"
    ],
    "source": "geocoded",
    "description": "Bas\u00edlica de Santa Mar\u00eda del Coro"
  },
  "8315509448": {
    "lat": 35.86166,
    "lng": 104.195397,
    "extracted_address": "China section of PortAventura Park",
    "formatted_address": "China",
    "types": [
      "country",
      "political"
    ],
    "source": "geocoded",
    "description": "China section of PortAventura Park"
  },
  "390524954": {
    "lat": 60.1676653,
    "lng": 24.9536778,
    "extracted_address": "Market Square (Kauppatori",
    "formatted_address": "Etel\u00e4ranta, 00170 Helsinki, Finland",
    "types": [
      "cafe",
      "establishment",
      "food",
      "point_of_interest",
      "restaurant",
      "tourist_attraction"
    ],
    "source": "geocoded",
    "description": "Market Square (Kauppatori"
  },
  "243799407": {
    "lat": 19.1330605,
    "lng": 72.9151061,
    "extracted_address": "Indian Institute of Technology Bombay",
    "formatted_address": "Main Gate Rd, IIT Area, Powai, Mumbai, Maharashtra 400076, India",
    "types": [
      "establishment",
      "point_of_interest",
      "university"
    ],
    "source": "geocoded",
    "description": "Indian Institute of Technology Bombay"
  },
  "5923624371": {
    "lat": 40.7535367,
    "lng": -73.9829529,
    "extracted_address": "Bryant Park",
    "formatted_address": "Bryant Park, New York, NY 10018, USA",
    "types": [
      "establishment",
      "park",
      "point_of_interest",
      "tourist_attraction"
    ],
    "source": "geocoded",
    "description": "Bryant Park"
  },
  "4811750972": {
    "lat": 31.339499,
    "lng": 121.221638,
    "extracted_address": "Shanghai International Circuit",
    "formatted_address": "China, Shang Hai Shi, Jia Ding Qu, \u4f0a\u5b81\u8def2000\u53f7 \u90ae\u653f\u7f16\u7801: 201800",
    "types": [
      "establishment",
      "point_of_interest"
    ],
    "source": "geocoded",
    "description": "Shanghai International Circuit"
  },
  "565519767": {
    "lat": 51.4994794,
    "lng": -0.1248092,
    "extracted_address": "Palace of Westminster",
    "formatted_address": "London SW1A 0AA, UK",
    "types": [
      "establishment",
      "point_of_interest",
      "tourist_attraction"
    ],
    "source": "geocoded",
    "description": "Palace of Westminster"
  },
  "5402766188": {
    "lat": 31.9685988,
    "lng": -99.9018131,
    "extracted_address": "Texas & Pacific (T&P) Terminal",
    "formatted_address": "Texas, USA",
    "types": [
      "administrative_area_level_1",
      "political"
    ],
    "source": "geocoded",
    "description": "Texas & Pacific (T&P) Terminal"
  },
  "2153205662": {
    "lat": 38.8978934,
    "lng": -77.02306879999999,
    "extracted_address": "Smithsonian American Art Museum",
    "formatted_address": "G Street Northwest &, 8th St NW, Washington, DC 20004, USA",
    "types": [
      "establishment",
      "museum",
      "point_of_interest",
      "tourist_attraction"
    ],
    "source": "geocoded",
    "description": "Smithsonian American Art Museum"
  },
  "369711791": {
    "lat": 42.880688,
    "lng": -8.544395399999999,
    "extracted_address": "Cathedral of Santiago de Compostela",
    "formatted_address": "Praza do Obradoiro, s/n, 15704 Santiago de Compostela, A Coru\u00f1a, Spain",
    "types": [
      "church",
      "establishment",
      "place_of_worship",
      "point_of_interest"
    ],
    "source": "geocoded",
    "description": "Cathedral of Santiago de Compostela"
  },
  "6296560201": {
    "lat": 49.409904,
    "lng": -1.318183,
    "extracted_address": "Sainte-M\u00e8re-\u00c9glise",
    "formatted_address": "50480 Sainte-M\u00e8re-\u00c9glise, France",
    "types": [
      "locality",
      "political"
    ],
    "source": "geocoded",
    "description": "Sainte-M\u00e8re-\u00c9glise"
  },
  "530299916": {
    "lat": 39.3404399,
    "lng": 3.0663585,
    "extracted_address": "Botanicactus",
    "formatted_address": "Botanicactus S.L., Carretera, 07640 Ses Salines, Illes Balears, Spain",
    "types": [
      "establishment",
      "park",
      "point_of_interest",
      "tourist_attraction"
    ],
    "source": "geocoded",
    "description": "Botanicactus"
  },
  "5682064843": {
    "lat": 28.5383832,
    "lng": -81.3789269,
    "extracted_address": "Wet \u2019n Wild Orlando",
    "formatted_address": "Orlando, FL, USA",
    "types": [
      "locality",
      "political"
    ],
    "source": "geocoded",
    "description": "Wet \u2019n Wild Orlando"
  },
  "88585744": {
    "lat": 11.1054336,
    "lng": 42.3704744,
    "extracted_address": "Dikhil",
    "formatted_address": "Dikhil, Djibouti",
    "types": [
      "locality",
      "political"
    ],
    "source": "geocoded",
    "description": "Dikhil"
  },
  "683194672": {
    "lat": 35.6699682,
    "lng": 139.709008,
    "extracted_address": "Harajuku",
    "formatted_address": "Harajuku, Jingumae, Shibuya, Tokyo 150-0001, Japan",
    "types": [
      "colloquial_area",
      "political"
    ],
    "source": "geocoded",
    "description": "Harajuku"
  },
  "522146989": {
    "lat": 50.94127839999999,
    "lng": 6.9582814,
    "extracted_address": "Cologne Cathedral",
    "formatted_address": "Domkloster 4, 50667 K\u00f6ln, Germany",
    "types": [
      "church",
      "establishment",
      "museum",
      "place_of_worship",
      "point_of_interest",
      "tourist_attraction"
    ],
    "source": "geocoded",
    "description": "Cologne Cathedral"
  },
  "822984583": {
    "lat": 51.159081,
    "lng": -2.583461,
    "extracted_address": "Worthy Farm",
    "formatted_address": "Worthy Farm, Worthy Ln, Pilton, Shepton Mallet BA4 4BY, UK",
    "types": [
      "premise",
      "street_address"
    ],
    "source": "geocoded",
    "description": "Worthy Farm"
  },
  "3015282977": {
    "lat": 56.122828,
    "lng": 12.301261,
    "extracted_address": "Gilleleje",
    "formatted_address": "Gilleleje, Denmark",
    "types": [
      "locality",
      "political"
    ],
    "source": "geocoded",
    "description": "Gilleleje"
  },
  "2094118584": {
    "lat": 9.0104744,
    "lng": 38.761104,
    "extracted_address": "Meskel Square",
    "formatted_address": "Addis Ababa, Ethiopia",
    "types": [
      "establishment",
      "point_of_interest"
    ],
    "source": "geocoded",
    "description": "Meskel Square"
  },
  "218049846": {
    "lat": 47.6094076,
    "lng": -122.3418358,
    "extracted_address": "Pike Place Market",
    "formatted_address": "85 Pike St, Seattle, WA 98101, USA",
    "types": [
      "establishment",
      "food",
      "grocery_or_supermarket",
      "point_of_interest",
      "restaurant",
      "store",
      "tourist_attraction"
    ],
    "source": "geocoded",
    "description": "Pike Place Market"
  },
  "1873728": {
    "lat": 33.8052096,
    "lng": -84.1451453,
    "extracted_address": "Stone Mountain Park",
    "formatted_address": "Stone Mountain Park, 1000 Robert E Lee Blvd, Stone Mountain, GA 30083, USA",
    "types": [
      "establishment",
      "park",
      "point_of_interest",
      "tourist_attraction"
    ],
    "source": "geocoded",
    "description": "Stone Mountain Park"
  },
  "3993363938": {
    "lat": 59.9311778,
    "lng": 30.3605437,
    "extracted_address": "Nevsky Prospekt",
    "formatted_address": "Nevsky pr., Sankt-Peterburg, Russia",
    "types": [
      "route"
    ],
    "source": "geocoded",
    "description": "Nevsky Prospekt"
  },
  "2337753762": {
    "lat": 51.5047752,
    "lng": -0.1272358,
    "extracted_address": "Horse Guards Parade",
    "formatted_address": "Whitehall, London SW1A 2ET, UK",
    "types": [
      "establishment",
      "point_of_interest"
    ],
    "source": "geocoded",
    "description": "Horse Guards Parade"
  },
  "5292540094": {
    "lat": 27.9806023,
    "lng": 34.3834588,
    "extracted_address": "Sharm El-Sheikh International Airport",
    "formatted_address": "Sharm El Sheikh International Airport, 2 El-Salam, Sharm El Sheikh 2, South Sinai Governorate 8752202, Egypt",
    "types": [
      "airport",
      "establishment",
      "point_of_interest"
    ],
    "source": "geocoded",
    "description": "Sharm El-Sheikh International Airport"
  },
  "486640035": {
    "lat": 37.3860469,
    "lng": -5.9920444,
    "extracted_address": "Plaza Virgen de los Reyes",
    "formatted_address": "Pl. Virgen de los Reyes, Casco Antiguo, 41004 Sevilla, Spain",
    "types": [
      "route"
    ],
    "source": "geocoded",
    "description": "Plaza Virgen de los Reyes"
  },
  "1301398204": {
    "lat": 48.8606111,
    "lng": 2.337644,
    "extracted_address": "Mus\u00e9e du Louvre",
    "formatted_address": "75001 Paris, France",
    "types": [
      "establishment",
      "museum",
      "point_of_interest",
      "tourist_attraction"
    ],
    "source": "geocoded",
    "description": "Mus\u00e9e du Louvre"
  },
  "219433381": {
    "lat": 37.3861784,
    "lng": -5.992613700000001,
    "extracted_address": "Giralda",
    "formatted_address": "Av. de la Constituci\u00f3n, s/n, Casco Antiguo, 41004 Sevilla, Spain",
    "types": [
      "establishment",
      "point_of_interest",
      "tourist_attraction"
    ],
    "source": "geocoded",
    "description": "Giralda"
  },
  "10121282706": {
    "lat": 45.4354635,
    "lng": 12.3447047,
    "extracted_address": "The architecture \u2013 pastel-stucco fa\u00e7ades, hanging laundry, narrow stone \u201ccalle\u201d and, above all, a tall grey campanile with an onion-shaped cupola \u2013 is typical of Venice, Italy.  \nThe tower matches the leaning campanile of the church of San Giorgio dei Greci in the sestiere of Castello. A small alley (Calle de l\u2019Osmarin / Salizada dei Greci) runs toward the tower exactly like the view in the photo.\n\nMost probable spot where the camera was set:\nCalle de l\u2019Osmarin, Castello, Venice, Italy  \n\u2248 45.4354\u00b0 N, 12.3433\u00b0 E\n\n(If not that exact stone alley, it is almost certainly within a few dozen metres of those coordinates in the Castello district, looking south-east toward the campanile of San Giorgio dei Greci.)",
    "formatted_address": "Calle dei Greci, 3422, 30122 Venezia VE, Italy",
    "types": [
      "church",
      "establishment",
      "place_of_worship",
      "point_of_interest",
      "tourist_attraction"
    ],
    "source": "geocoded",
    "description": "Calle de l\u2019Osmarin"
  },
  "247024863": {
    "lat": 40.137406,
    "lng": 116.643258,
    "extracted_address": "Di\u2019anmen West/Outer Street",
    "formatted_address": "China, Bei Jing Shi, Shun Yi Qu, \u897f\u5916\u88574JPV+X86 \u90ae\u653f\u7f16\u7801: 101319",
    "types": [
      "establishment",
      "point_of_interest"
    ],
    "source": "geocoded",
    "description": "Di\u2019anmen West/Outer Street"
  },
  "6295982812": {
    "lat": 37.7822994,
    "lng": -122.511587,
    "extracted_address": "Lands End coastal trail area, San Francisco, California, USA",
    "formatted_address": "Lands End Trail & Coastal Trail, San Francisco, CA 94121, USA",
    "types": [
      "intersection"
    ],
    "source": "geocoded",
    "description": "Lands End"
  },
  "13363473424": {
    "lat": 53.8113646,
    "lng": -1.5605584,
    "extracted_address": "Woodhouse Moor",
    "formatted_address": "Woodhouse Moor, Woodhouse Ln, Woodhouse, Leeds LS6 1SJ, UK",
    "types": [
      "establishment",
      "park",
      "point_of_interest",
      "tourist_attraction"
    ],
    "source": "geocoded",
    "description": "Woodhouse Moor"
  },
  "9386702982": {
    "lat": 41.2502745,
    "lng": -75.8794058,
    "extracted_address": "King's College",
    "formatted_address": "133 N River St, Wilkes-Barre, PA 18711, USA",
    "types": [
      "establishment",
      "point_of_interest",
      "university"
    ],
    "source": "geocoded",
    "description": "King's College"
  },
  "14006146813": {
    "lat": 19.4087958,
    "lng": -155.9026125,
    "extracted_address": "Pu\u02bbuhonua O H\u014dnaunau National Historical Park",
    "formatted_address": "Pu'uhonua O Honaunau National Historical Park, State Hwy 160, H\u014dnaunau, HI 96726, USA",
    "types": [
      "establishment",
      "park",
      "point_of_interest"
    ],
    "source": "geocoded",
    "description": "Pu\u02bbuhonua O H\u014dnaunau National Historical Park"
  },
  "3194135654": {
    "lat": 21.4389123,
    "lng": -158.0000565,
    "extracted_address": "O\u02bbahu",
    "formatted_address": "O\u2018ahu, Hawaii, USA",
    "types": [
      "establishment",
      "natural_feature"
    ],
    "source": "geocoded",
    "description": "O\u02bbahu"
  },
  "384987215": {
    "lat": 18.5626928,
    "lng": 73.9372291,
    "extracted_address": "Nagar Road",
    "formatted_address": "Nagar Rd, Pune, Maharashtra, India",
    "types": [
      "route"
    ],
    "source": "geocoded",
    "description": "Nagar Road"
  },
  "984664910": {
    "lat": 39.2866653,
    "lng": -76.61000489999999,
    "extracted_address": "Inner Harbour",
    "formatted_address": "Inner Harbor, Baltimore, MD, USA",
    "types": [
      "neighborhood",
      "political"
    ],
    "source": "geocoded",
    "description": "Inner Harbour"
  },
  "3109247737": {
    "lat": 40.7579747,
    "lng": -73.9855426,
    "extracted_address": "Times Square",
    "formatted_address": "Manhattan, NY 10036, USA",
    "types": [
      "establishment",
      "point_of_interest",
      "tourist_attraction"
    ],
    "source": "geocoded",
    "description": "Times Square"
  },
  "7442103862": {
    "lat": 13.7016759,
    "lng": 99.84179119999999,
    "extracted_address": "Wat Muang",
    "formatted_address": "Wat Muang, Soi Fa, Photharam District, Ratchaburi 70120, Thailand",
    "types": [
      "administrative_area_level_4",
      "political"
    ],
    "source": "geocoded",
    "description": "Wat Muang"
  },
  "3578355376": {
    "lat": 36.5177696,
    "lng": -121.9446791,
    "extracted_address": "Point Lobos State Natural Reserve",
    "formatted_address": "Point Lobos State Natural Reserve, Carmel-By-The-Sea, CA 93923, USA",
    "types": [
      "establishment",
      "park",
      "point_of_interest",
      "tourist_attraction"
    ],
    "source": "geocoded",
    "description": "Point Lobos State Natural Reserve"
  },
  "864927630": {
    "lat": 48.85296820000001,
    "lng": 2.3499021,
    "extracted_address": "Notre-Dame Cathedral",
    "formatted_address": "6 Parvis Notre-Dame - Pl. Jean-Paul II, 75004 Paris, France",
    "types": [
      "church",
      "establishment",
      "place_of_worship",
      "point_of_interest",
      "tourist_attraction"
    ],
    "source": "geocoded",
    "description": "Notre-Dame Cathedral"
  },
  "3123807177": {
    "lat": 28.0007009,
    "lng": -82.4548315,
    "extracted_address": "Seminole Heights",
    "formatted_address": "Seminole Heights, Tampa, FL 33604, USA",
    "types": [
      "neighborhood",
      "political"
    ],
    "source": "geocoded",
    "description": "Seminole Heights"
  },
  "5377580962": {
    "lat": 1.2863532,
    "lng": 103.8530671,
    "extracted_address": "The Fullerton Hotel",
    "formatted_address": "1 Fullerton Square, Singapore 049178",
    "types": [
      "establishment",
      "lodging",
      "point_of_interest",
      "spa"
    ],
    "source": "geocoded",
    "description": "The Fullerton Hotel"
  },
  "2936373184": {
    "lat": 42.373465,
    "lng": -71.1189467,
    "extracted_address": "Harvard Square",
    "formatted_address": "Brattle St, Cambridge, MA 02138, USA",
    "types": [
      "establishment",
      "point_of_interest",
      "tourist_attraction"
    ],
    "source": "geocoded",
    "description": "Harvard Square"
  },
  "400760123": {
    "lat": 41.0479225,
    "lng": 28.9338509,
    "extracted_address": "Ey\u00fcp Sultan Mosque",
    "formatted_address": "Ey\u00fcp Sultan Mosque, Merkez, Cami Kebir Sk. Ey\u00fcp Sultan Cami No:23, 34050 Ey\u00fcpsultan/\u0130stanbul, T\u00fcrkiye",
    "types": [
      "establishment",
      "mosque",
      "park",
      "place_of_worship",
      "point_of_interest"
    ],
    "source": "geocoded",
    "description": "Ey\u00fcp Sultan Mosque"
  },
  "3252552164": {
    "lat": 31.8914799,
    "lng": 104.30755,
    "extracted_address": "Beichuan",
    "formatted_address": "Beichuan Qiang Autonomous County, Mianyang, Sichuan, China",
    "types": [
      "political",
      "sublocality",
      "sublocality_level_1"
    ],
    "source": "geocoded",
    "description": "Beichuan"
  },
  "4844677845": {
    "lat": 37.4268342,
    "lng": -122.0807023,
    "extracted_address": "Shoreline Amphitheatre",
    "formatted_address": "One Amphitheatre Pkwy, Mountain View, CA 94043, USA",
    "types": [
      "establishment",
      "point_of_interest"
    ],
    "source": "geocoded",
    "description": "Shoreline Amphitheatre"
  },
  "5597507214": {
    "lat": 53.4083714,
    "lng": -2.9915726,
    "extracted_address": "Liverpool Primary School",
    "formatted_address": "Liverpool, UK",
    "types": [
      "locality",
      "political"
    ],
    "source": "geocoded",
    "description": "Liverpool Primary School"
  },
  "3623215891": {
    "lat": 41.88889229999999,
    "lng": -87.6243453,
    "extracted_address": "Michigan Avenue (DuSable) Bridge",
    "formatted_address": "DuSable Bridge, 333 Michigan Ave, Chicago, IL 60601, USA",
    "types": [
      "establishment",
      "point_of_interest",
      "tourist_attraction"
    ],
    "source": "geocoded",
    "description": "Michigan Avenue (DuSable) Bridge"
  },
  "2096637293": {
    "lat": 40.7358633,
    "lng": -73.9910835,
    "extracted_address": "Union Square Park",
    "formatted_address": "Union Square, New York, NY 10003, USA",
    "types": [
      "neighborhood",
      "political"
    ],
    "source": "geocoded",
    "description": "Union Square Park"
  },
  "2042084815": {
    "lat": 54.7561024,
    "lng": 8.2874933,
    "extracted_address": "H\u00f6rnum Beach",
    "formatted_address": "H\u00f6rnum, Germany",
    "types": [
      "locality",
      "political"
    ],
    "source": "geocoded",
    "description": "H\u00f6rnum Beach"
  },
  "7754718074": {
    "lat": 40.21144779999999,
    "lng": -8.4269067,
    "extracted_address": "Pra\u00e7a do Mercado",
    "formatted_address": "Mercado Municipal D. Pedro V, R. Ol\u00edmpio Nicolau Rui Fernandes 208 Piso 1, 3000-286 Coimbra, Portugal",
    "types": [
      "establishment",
      "food",
      "point_of_interest",
      "restaurant"
    ],
    "source": "geocoded",
    "description": "Pra\u00e7a do Mercado"
  },
  "3437788035": {
    "lat": 41.8964485,
    "lng": 12.4813787,
    "extracted_address": "Palazzo Venezia",
    "formatted_address": "Via del Plebiscito, 118, 00186 Roma RM, Italy",
    "types": [
      "establishment",
      "museum",
      "point_of_interest",
      "tourist_attraction"
    ],
    "source": "geocoded",
    "description": "Palazzo Venezia"
  },
  "2877611238": {
    "lat": 42.36926210000001,
    "lng": -83.0772992,
    "extracted_address": "Fisher Building",
    "formatted_address": "3011 W Grand Blvd, Detroit, MI 48202, USA",
    "types": [
      "establishment",
      "point_of_interest"
    ],
    "source": "geocoded",
    "description": "Fisher Building"
  },
  "5157067509": {
    "lat": 40.7535367,
    "lng": -73.9829529,
    "extracted_address": "Bryant Park",
    "formatted_address": "Bryant Park, New York, NY 10018, USA",
    "types": [
      "establishment",
      "park",
      "point_of_interest",
      "tourist_attraction"
    ],
    "source": "geocoded",
    "description": "Bryant Park"
  },
  "6961442808": {
    "lat": 37.5177902,
    "lng": -122.5128227,
    "extracted_address": "Moss Beach Distillery",
    "formatted_address": "140 Beach Way, Moss Beach, CA 94038, USA",
    "types": [
      "bar",
      "establishment",
      "food",
      "point_of_interest",
      "restaurant"
    ],
    "source": "geocoded",
    "description": "Moss Beach Distillery"
  },
  "6127913719": {
    "lat": 34.1163029,
    "lng": -118.3427735,
    "extracted_address": "Jerome C. Daniel Overlook",
    "formatted_address": "Jerome C. Daniel Overlook above the Hollywood Bowl, 7036 Mulholland Dr, Los Angeles, CA 90068, USA",
    "types": [
      "establishment",
      "park",
      "parking",
      "point_of_interest",
      "tourist_attraction"
    ],
    "source": "geocoded",
    "description": "Jerome C. Daniel Overlook"
  },
  "280128811": {
    "lat": 42.6636581,
    "lng": 18.0655651,
    "extracted_address": "Copacabana Beach",
    "formatted_address": "Ul. Ivana pl. Zajca, 20000, Dubrovnik, Croatia",
    "types": [
      "establishment",
      "point_of_interest"
    ],
    "source": "geocoded",
    "description": "Copacabana Beach"
  },
  "1289357310": {
    "lat": 37.3831108,
    "lng": -5.9902438,
    "extracted_address": "Real Alc\u00e1zar Gardens",
    "formatted_address": "Jardines alcazares, Juderia, 2, Casco Antiguo, 41004 Sevilla, Spain",
    "types": [
      "establishment",
      "park",
      "point_of_interest"
    ],
    "source": "geocoded",
    "description": "Real Alc\u00e1zar Gardens"
  },
  "3858951022": {
    "lat": 28.3580628,
    "lng": -81.5590975,
    "extracted_address": "Disney\u2019s Hollywood Studios",
    "formatted_address": "Bay Lake, FL 34747, USA",
    "types": [
      "amusement_park",
      "establishment",
      "point_of_interest",
      "tourist_attraction"
    ],
    "source": "geocoded",
    "description": "Disney\u2019s Hollywood Studios"
  },
  "516142073": {
    "lat": 48.117266,
    "lng": -1.6777926,
    "extracted_address": "Rennes",
    "formatted_address": "Rennes, France",
    "types": [
      "locality",
      "political"
    ],
    "source": "geocoded",
    "description": "Rennes"
  },
  "4943904461": {
    "lat": 34.252061,
    "lng": 108.950297,
    "extracted_address": "Xi\u2019an Ancient City Wall",
    "formatted_address": "China, Shan Xi Sheng, Xi An Shi, Bei Lin Qu, \u9655\u897f \u90ae\u653f\u7f16\u7801: 710001",
    "types": [
      "establishment",
      "point_of_interest",
      "tourist_attraction"
    ],
    "source": "geocoded",
    "description": "Xi\u2019an Ancient City Wall"
  },
  "9672684353": {
    "lat": 47.6049412,
    "lng": -122.3305016,
    "extracted_address": "Columbia Center",
    "formatted_address": "701 5th Ave, Seattle, WA 98104, USA",
    "types": [
      "establishment",
      "point_of_interest",
      "tourist_attraction"
    ],
    "source": "geocoded",
    "description": "Columbia Center"
  },
  "4337867861": {
    "lat": -34.6218351,
    "lng": -58.3713942,
    "extracted_address": "San Telmo",
    "formatted_address": "San Telmo, Buenos Aires, Argentina",
    "types": [
      "political",
      "sublocality",
      "sublocality_level_1"
    ],
    "source": "geocoded",
    "description": "San Telmo"
  },
  "8709361761": {
    "lat": 37.52958080000001,
    "lng": 126.9326803,
    "extracted_address": "Yeouido Spring Flower Festival",
    "formatted_address": "\uc11c\uc6b8\ud2b9\ubcc4\uc2dc Yeouido",
    "types": [
      "establishment",
      "natural_feature"
    ],
    "source": "geocoded",
    "description": "Yeouido Spring Flower Festival"
  },
  "297192747": {
    "lat": -45.02850110000001,
    "lng": 168.6561937,
    "extracted_address": "Skyline Queenstown",
    "formatted_address": "53 Brecon Street, Queenstown 9300, New Zealand",
    "types": [
      "cafe",
      "establishment",
      "food",
      "point_of_interest",
      "tourist_attraction"
    ],
    "source": "geocoded",
    "description": "Skyline Queenstown"
  },
  "204004897": {
    "lat": 41.4144948,
    "lng": 2.1526945,
    "extracted_address": "Park G\u00fcell",
    "formatted_address": "Park G\u00fcell, Gr\u00e0cia, 08024 Barcelona, Spain",
    "types": [
      "establishment",
      "park",
      "point_of_interest",
      "tourist_attraction"
    ],
    "source": "geocoded",
    "description": "Park G\u00fcell"
  },
  "2901075604": {
    "lat": 40.6868416,
    "lng": -72.9986804,
    "extracted_address": "Fire Island National Seashore",
    "formatted_address": "Fire Island National Seashore, Ocean Beach, NY 11770, USA",
    "types": [
      "establishment",
      "park",
      "point_of_interest"
    ],
    "source": "geocoded",
    "description": "Fire Island National Seashore"
  },
  "2748295493": {
    "lat": 50.0864771,
    "lng": 14.4114366,
    "extracted_address": "Charles Bridge",
    "formatted_address": "Charles Bridge, Karl\u016fv most, 110 00 Praha 1, Czechia",
    "types": [
      "establishment",
      "point_of_interest",
      "tourist_attraction"
    ],
    "source": "geocoded",
    "description": "Charles Bridge"
  },
  "9674782856": {
    "lat": 44.8041322,
    "lng": -93.1668858,
    "extracted_address": "Eagan",
    "formatted_address": "Eagan, MN, USA",
    "types": [
      "locality",
      "political"
    ],
    "source": "geocoded",
    "description": "Eagan"
  },
  "478731834": {
    "lat": 40.7358633,
    "lng": -73.9910835,
    "extracted_address": "Union Square",
    "formatted_address": "Union Square, New York, NY 10003, USA",
    "types": [
      "neighborhood",
      "political"
    ],
    "source": "geocoded",
    "description": "Union Square"
  },
  "5086239896": {
    "lat": 48.8575475,
    "lng": 2.3513765,
    "extracted_address": "A station on the Paris M\u00e9tro, Paris, France",
    "formatted_address": "Paris, France",
    "types": [
      "locality",
      "political"
    ],
    "source": "geocoded",
    "description": "Paris M\u00e9tro"
  },
  "13068369505": {
    "lat": 50.247561,
    "lng": 10.1944102,
    "extracted_address": "Best guess: the photo was taken during the BraveheartBattle obstacle run held near M\u00fcnnerstadt, Bavaria, Germany (approximate coordinates \u2248 50.25 N, 10.20 E).",
    "formatted_address": "97702 M\u00fcnnerstadt, Germany",
    "types": [
      "locality",
      "political"
    ],
    "source": "geocoded",
    "description": "BraveheartBattle obstacle run"
  },
  "162863290": {
    "lat": 48.8652644,
    "lng": 2.3468149,
    "extracted_address": "Stohrer p\u00e2tisserie",
    "formatted_address": "51 Rue Montorgueil, 75002 Paris, France",
    "types": [
      "bakery",
      "establishment",
      "food",
      "point_of_interest",
      "store"
    ],
    "source": "geocoded",
    "description": "Stohrer p\u00e2tisserie"
  },
  "3239097412": {
    "lat": 48.3384917,
    "lng": 8.4607759,
    "extracted_address": "Graben",
    "formatted_address": "72275 Alpirsbach-Gr\u00e4ben, Germany",
    "types": [
      "political",
      "sublocality",
      "sublocality_level_1"
    ],
    "source": "geocoded",
    "description": "Graben"
  },
  "2280991185": {
    "lat": 40.7579747,
    "lng": -73.9855426,
    "extracted_address": "Times Square",
    "formatted_address": "Manhattan, NY 10036, USA",
    "types": [
      "establishment",
      "point_of_interest",
      "tourist_attraction"
    ],
    "source": "geocoded",
    "description": "Times Square"
  },
  "358786282": {
    "lat": 18.937922,
    "lng": 72.836782,
    "extracted_address": "Lalbaugcha Raja Ganesh pandal, Lalbaug, Mumbai, Maharashtra, India",
    "formatted_address": "WRQP+5PH, Shahid Bhagat Singh Rd, near Sher E Punjab Hotel, Borabazar Precinct, Ballard Estate, Fort, Mumbai, Maharashtra 400001, India",
    "types": [
      "establishment",
      "place_of_worship",
      "point_of_interest"
    ],
    "source": "geocoded",
    "description": "Lalbaugcha Raja Ganesh pandal"
  },
  "5799461563": {
    "lat": 48.0076899,
    "lng": 16.2316578,
    "extracted_address": "Gr\u00fcner Markt",
    "formatted_address": "Erzherzog Rainer-Ring 10, 2500 Baden, Austria",
    "types": [
      "establishment",
      "point_of_interest"
    ],
    "source": "geocoded",
    "description": "Gr\u00fcner Markt"
  },
  "5787620294": {
    "lat": -17.9284388,
    "lng": 25.857203,
    "extracted_address": "Victoria Falls Bridge",
    "formatted_address": "Victoria Falls Bridge, Zimbabwe Africa, Livingstone Way, Victoria Falls, Zimbabwe",
    "types": [
      "establishment",
      "point_of_interest",
      "tourist_attraction"
    ],
    "source": "geocoded",
    "description": "Victoria Falls Bridge"
  },
  "8610550": {
    "lat": -8.5124168,
    "lng": 115.2609774,
    "extracted_address": "Jalan Monkey Forest",
    "formatted_address": "Jl. Monkey Forest, Ubud, Kecamatan Ubud, Kabupaten Gianyar, Bali 80571, Indonesia",
    "types": [
      "route"
    ],
    "source": "geocoded",
    "description": "Jalan Monkey Forest"
  },
  "7291335624": {
    "lat": 24.6366996,
    "lng": -76.1746131,
    "extracted_address": "Princess Cays",
    "formatted_address": "Eleuthera, JRPG+M5C, Bannerman Town, The Bahamas",
    "types": [
      "establishment",
      "lodging",
      "point_of_interest",
      "travel_agency"
    ],
    "source": "geocoded",
    "description": "Princess Cays"
  },
  "12246783313": {
    "lat": 36.1216343,
    "lng": -115.1763346,
    "extracted_address": "The Mirage Hotel & Casino",
    "formatted_address": "3400 S Las Vegas Blvd, Las Vegas, NV 89109, USA",
    "types": [
      "casino",
      "establishment",
      "lodging",
      "point_of_interest"
    ],
    "source": "geocoded",
    "description": "The Mirage Hotel & Casino"
  },
  "9156741088": {
    "lat": 43.8803357,
    "lng": -103.4537746,
    "extracted_address": "Mount Rushmore National Memorial",
    "formatted_address": "Mount Rushmore National Memorial, Keystone, SD 57751, USA",
    "types": [
      "establishment",
      "park",
      "point_of_interest",
      "tourist_attraction"
    ],
    "source": "geocoded",
    "description": "Mount Rushmore National Memorial"
  },
  "4794484965": {
    "lat": 38.6915837,
    "lng": -9.215977299999999,
    "extracted_address": "Bel\u00e9m Tower",
    "formatted_address": "Av. Bras\u00edlia, 1400-038 Lisboa, Portugal",
    "types": [
      "establishment",
      "point_of_interest",
      "tourist_attraction"
    ],
    "source": "geocoded",
    "description": "Bel\u00e9m Tower"
  },
  "8097524059": {
    "lat": 9.6540146,
    "lng": -82.75494119999999,
    "extracted_address": "Puerto Viejo de Talamanca",
    "formatted_address": "Lim\u00f3n Province, Puerto Viejo de Talamanca, Costa Rica",
    "types": [
      "locality",
      "political"
    ],
    "source": "geocoded",
    "description": "Puerto Viejo de Talamanca"
  },
  "8455618": {
    "lat": -33.8567844,
    "lng": 151.2152967,
    "extracted_address": "Steps of the Sydney Opera House",
    "formatted_address": "Bennelong Point, Sydney NSW 2000, Australia",
    "types": [
      "establishment",
      "point_of_interest",
      "tourist_attraction"
    ],
    "source": "geocoded",
    "description": "Steps of the Sydney Opera House"
  },
  "2913584854": {
    "lat": 32.7872403,
    "lng": -106.3256816,
    "extracted_address": "White Sands National Park",
    "formatted_address": "White Sands National Park, New Mexico, USA",
    "types": [
      "establishment",
      "park",
      "point_of_interest",
      "tourist_attraction"
    ],
    "source": "geocoded",
    "description": "White Sands National Park"
  },
  "8474615403": {
    "lat": 38.9019364,
    "lng": -77.03895659999999,
    "extracted_address": "Farragut Square",
    "formatted_address": "Farragut Square, 912 17th St NW, Washington, DC 20006, USA",
    "types": [
      "establishment",
      "park",
      "point_of_interest",
      "tourist_attraction"
    ],
    "source": "geocoded",
    "description": "Farragut Square"
  },
  "6343370101": {
    "lat": 41.1446046,
    "lng": 1.4126395,
    "extracted_address": "Carrer de Joaquim Costa",
    "formatted_address": "Carrer Joaquim Costa, 43830 Torredembarra, Tarragona, Spain",
    "types": [
      "route"
    ],
    "source": "geocoded",
    "description": "Carrer de Joaquim Costa"
  },
  "6335084059": {
    "lat": 48.8631632,
    "lng": 2.3870009,
    "extracted_address": "Boulevard de M\u00e9nilmontant",
    "formatted_address": "Bd de M\u00e9nilmontant, Paris, France",
    "types": [
      "route"
    ],
    "source": "geocoded",
    "description": "Boulevard de M\u00e9nilmontant"
  },
  "13744066983": {
    "lat": 20.6295586,
    "lng": -87.0738851,
    "extracted_address": "Playa del Carmen",
    "formatted_address": "Playa del Carmen, Quintana Roo, Mexico",
    "types": [
      "locality",
      "political"
    ],
    "source": "geocoded",
    "description": "Playa del Carmen"
  },
  "4529830482": {
    "lat": 37.7846321,
    "lng": -122.4313039,
    "extracted_address": "Japantown",
    "formatted_address": "Japantown, San Francisco, CA, USA",
    "types": [
      "neighborhood",
      "political"
    ],
    "source": "geocoded",
    "description": "Japantown"
  },
  "462744220": {
    "lat": 38.7442175,
    "lng": -90.3053915,
    "extracted_address": "Best guess: a residential street in the inner-ring suburbs of St. Louis, Missouri, USA \u2013 roughly near 38.744 \u00b0N, 90.304 \u00b0W (Ferguson area).",
    "formatted_address": "Ferguson, MO, USA",
    "types": [
      "locality",
      "political"
    ],
    "source": "geocoded",
    "description": "Ferguson"
  },
  "2689360364": {
    "lat": 43.9894324,
    "lng": -123.0973068,
    "extracted_address": "Spencer Butte",
    "formatted_address": "Spencer Butte, Oregon 97405, USA",
    "types": [
      "establishment",
      "natural_feature"
    ],
    "source": "geocoded",
    "description": "Spencer Butte"
  },
  "5746464724": {
    "lat": 46.0506022,
    "lng": 14.5066332,
    "extracted_address": "Stritarjeva ulica",
    "formatted_address": "Stritarjeva ulica, 1000 Ljubljana, Slovenia",
    "types": [
      "route"
    ],
    "source": "geocoded",
    "description": "Stritarjeva ulica"
  },
  "3793961408": {
    "lat": 40.7579747,
    "lng": -73.9855426,
    "extracted_address": "Times Square",
    "formatted_address": "Manhattan, NY 10036, USA",
    "types": [
      "establishment",
      "point_of_interest",
      "tourist_attraction"
    ],
    "source": "geocoded",
    "description": "Times Square"
  },
  "8275994864": {
    "lat": 53.4015866,
    "lng": -3.0021331,
    "extracted_address": "Queensway Tunnel",
    "formatted_address": "Queensway Tunl, United Kingdom",
    "types": [
      "route"
    ],
    "source": "geocoded",
    "description": "Queensway Tunnel"
  },
  "3957939154": {
    "lat": 48.4196283,
    "lng": -123.3702583,
    "extracted_address": "British Columbia Parliament Buildings",
    "formatted_address": "501 Belleville St., Victoria, BC V8V 2H2, Canada",
    "types": [
      "establishment",
      "point_of_interest",
      "tourist_attraction"
    ],
    "source": "geocoded",
    "description": "British Columbia Parliament Buildings"
  },
  "4659077680": {
    "lat": 35.1610807,
    "lng": -111.2792067,
    "extracted_address": "Twin Arrows Trading Post",
    "formatted_address": "Flagstaff, AZ 86004, USA",
    "types": [
      "establishment",
      "point_of_interest",
      "tourist_attraction"
    ],
    "source": "geocoded",
    "description": "Twin Arrows Trading Post"
  },
  "496664918": {
    "lat": 40.7825547,
    "lng": -73.9655834,
    "extracted_address": "Central Park",
    "formatted_address": "Central Park, New York, NY, USA",
    "types": [
      "establishment",
      "park",
      "point_of_interest",
      "tourist_attraction"
    ],
    "source": "geocoded",
    "description": "Central Park"
  },
  "5645366543": {
    "lat": -50.3635346,
    "lng": -72.2601854,
    "extracted_address": "Cerro Huyliche",
    "formatted_address": "C. 363, El Calafate, Santa Cruz, Argentina",
    "types": [
      "establishment",
      "lodging",
      "point_of_interest"
    ],
    "source": "geocoded",
    "description": "Cerro Huyliche"
  },
  "6955589443": {
    "lat": 40.7127431,
    "lng": -74.0133795,
    "extracted_address": "One World Trade Center",
    "formatted_address": "285 Fulton St, New York, NY 10007, USA",
    "types": [
      "establishment",
      "point_of_interest",
      "tourist_attraction"
    ],
    "source": "geocoded",
    "description": "One World Trade Center"
  },
  "379419762": {
    "lat": 23.512456,
    "lng": 113.226573,
    "extracted_address": "Temple of Heaven Park",
    "formatted_address": "G66G+XJP Temple of Heaven Park, Hua Du Qu, Guang Zhou Shi, Guang Dong Sheng, China, 510860",
    "types": [
      "establishment",
      "park",
      "point_of_interest"
    ],
    "source": "geocoded",
    "description": "Temple of Heaven Park"
  },
  "2250587484": {
    "lat": 14.583771,
    "lng": 121.0596753,
    "extracted_address": "Ortigas-Pasig",
    "formatted_address": "Ortigas Center, Pasig, Metro Manila, Philippines",
    "types": [
      "political",
      "sublocality",
      "sublocality_level_1"
    ],
    "source": "geocoded",
    "description": "Ortigas-Pasig"
  },
  "3106038695": {
    "lat": 51.5096372,
    "lng": -0.1458393,
    "extracted_address": "Berkeley Square",
    "formatted_address": "Berkeley Square, 45 Berkeley Square, London W1J 5AS, UK",
    "types": [
      "establishment",
      "park",
      "point_of_interest"
    ],
    "source": "geocoded",
    "description": "Berkeley Square"
  },
  "6930209086": {
    "lat": 30.0430587,
    "lng": 31.239915,
    "extracted_address": "Mohamed Mahmoud Street",
    "formatted_address": "Mohammed Mahmoud, Cairo Governorate, Egypt",
    "types": [
      "route"
    ],
    "source": "geocoded",
    "description": "Mohamed Mahmoud Street"
  },
  "8522888335": {
    "lat": 38.8966431,
    "lng": -77.0175888,
    "extracted_address": "National Law Enforcement Officers Memorial",
    "formatted_address": "National Law Enforcement Officers Memorial, 450 F St NW, Washington, DC 20001, USA",
    "types": [
      "establishment",
      "park",
      "point_of_interest",
      "tourist_attraction"
    ],
    "source": "geocoded",
    "description": "National Law Enforcement Officers Memorial"
  },
  "2315275238": {
    "lat": 52.6354514,
    "lng": -1.1382938,
    "extracted_address": "Highcross Shopping Centre",
    "formatted_address": "Highcross Shopping Centre, High St, Leicester LE1 4JB, UK",
    "types": [
      "premise",
      "street_address"
    ],
    "source": "geocoded",
    "description": "Highcross Shopping Centre"
  },
  "2954529438": {
    "lat": 43.722952,
    "lng": 10.396597,
    "extracted_address": "Leaning Tower of Pisa",
    "formatted_address": "Piazza del Duomo, 56126 Pisa PI, Italy",
    "types": [
      "establishment",
      "point_of_interest",
      "tourist_attraction"
    ],
    "source": "geocoded",
    "description": "Leaning Tower of Pisa"
  },
  "4182683298": {
    "lat": 43.83746499999999,
    "lng": 7.8290178,
    "extracted_address": "Bussana Vecchia",
    "formatted_address": "18038 Bussana Vecchia, Province of Imperia, Italy",
    "types": [
      "locality",
      "political"
    ],
    "source": "geocoded",
    "description": "Bussana Vecchia"
  },