{
  "13963887305": {
    "lat": 25.547326,
    "lng": 91.8749656,
    "extracted_address": "Shillong Peak",
    "formatted_address": "Pomlakrai, Meghalaya 793010, India",
    "types": [
      "establishment",
      "point_of_interest",
      "tourist_attraction"
    ],
    "source": "geocoded",
    "description": "Shillong Peak"
  },
  "443568113": {
    "lat": 34.6889851,
    "lng": 135.8398158,
    "extracted_address": "Todai-ji Temple",
    "formatted_address": "406-1 Z\u014dshich\u014d, Nara, 630-8587, Japan",
    "types": [
      "establishment",
      "place_of_worship",
      "point_of_interest",
      "tourist_attraction"
    ],
    "source": "geocoded",
    "description": "Todai-ji Temple"
  },
  "530299916": {
    "lat": 40.3532042,
    "lng": 18.1722259,
    "extracted_address": "Piazza Sant'Oronzo",
    "formatted_address": "Piazza Sant'Oronzo, 73100 Lecce LE, Italy",
    "types": [
      "route"
    ],
    "source": "geocoded",
    "description": "Piazza Sant'Oronzo"
  },
  "6042645653": {
    "lat": 38.9499894,
    "lng": -120.1082038,
    "extracted_address": "Emerald Bay State Park",
    "formatted_address": "Emerald Bay State Park, California 96150, USA",
    "types": [
      "establishment",
      "park",
      "point_of_interest",
      "tourist_attraction"
    ],
    "source": "geocoded",
    "description": "Emerald Bay State Park"
  },
  "452289167": {
    "lat": 30.74480789999999,
    "lng": 79.4912552,
    "extracted_address": "Badrinath Temple",
    "formatted_address": "Badri to Mata Murti road, Badrinath, Uttarakhand 246422, India",
    "types": [
      "establishment",
      "hindu_temple",
      "place_of_worship",
      "point_of_interest",
      "tourist_attraction"
    ],
    "source": "geocoded",
    "description": "Badrinath Temple"
  },
  "5077445230": {
    "lat": 29.926674,
    "lng": -90.1008159,
    "extracted_address": "St. Charles Avenue and Lee Circle",
    "formatted_address": "St Charles Ave, New Orleans, LA, USA",
    "types": [
      "route"
    ],
    "source": "geocoded",
    "description": "St. Charles Avenue and Lee Circle"
  },
  "1574809957": {
    "lat": 55.9460272,
    "lng": -3.2346154,
    "extracted_address": "Water of Leith walkway",
    "formatted_address": "Water of Leith Walkway, Edinburgh, UK",
    "types": [
      "route"
    ],
    "source": "geocoded",
    "description": "Water of Leith walkway"
  },
  "218049846": {
    "lat": 39.9531593,
    "lng": -75.15909839999999,
    "extracted_address": "Reading Terminal Market",
    "formatted_address": "1136 Arch St, Philadelphia, PA 19107, USA",
    "types": [
      "establishment",
      "food",
      "grocery_or_supermarket",
      "point_of_interest",
      "store"
    ],
    "source": "geocoded",
    "description": "Reading Terminal Market"
  },
  "1422104961": {
    "lat": -37.8214366,
    "lng": 144.9688428,
    "extracted_address": "Arts Centre",
    "formatted_address": "100 St Kilda Rd, Southbank VIC 3004, Australia",
    "types": [
      "establishment",
      "point_of_interest",
      "tourist_attraction"
    ],
    "source": "geocoded",
    "description": "Arts Centre"
  },
  "379604236": {
    "lat": 43.3249362,
    "lng": -1.9849032,
    "extracted_address": "Convento de San Telmo",
    "formatted_address": "Convento de San Telmo, 20003 Donostia-San Sebasti\u00e1n, Guip\u00fazcoa, Spain",
    "types": [
      "premise",
      "street_address"
    ],
    "source": "geocoded",
    "description": "Convento de San Telmo"
  },
  "284743606": {
    "lat": 38.8997145,
    "lng": -77.0485992,
    "extracted_address": "The George Washington University",
    "formatted_address": "2121 I St NW, Washington, DC 20052, USA",
    "types": [
      "establishment",
      "point_of_interest",
      "university"
    ],
    "source": "geocoded",
    "description": "The George Washington University"
  },
  "2738387084": {
    "lat": 52.1024015,
    "lng": 4.3021834,
    "extracted_address": "Scheveningen",
    "formatted_address": "Scheveningen, The Hague, Netherlands",
    "types": [
      "political",
      "sublocality",
      "sublocality_level_1"
    ],
    "source": "geocoded",
    "description": "Scheveningen"
  },
  "7159800926": {
    "lat": 46.227638,
    "lng": 2.213749,
    "extracted_address": "Certainly!\n\n1. Guess a country: France  \n   - The architectural style visible in the background and the style of the street fixtures, such as the metal railings, are reminiscent of typical French urban settings.  \n   - The crowd and the nature of the protest or gathering also suggest a European context, with France being a strong candidate due to its frequent public demonstrations.\n\n2. Guess a city: Paris  \n   - The density and style of the crowd, as well as the visible signage and architectural elements, strongly resemble Parisian public squares or streets known for protests and public gatherings.  \n   - The structure in the background with the clock and surrounding details is similar to those found near major landmarks in Paris.\n\n3. Guess a specific location or coordinate: Place de la R\u00e9publique, Paris, France  \n   - Place de la R\u00e9publique is a well-known central square in Paris frequently used for demonstrations and public assemblies.  \n   - The metal railing and the monument structure behind the crowd align with the features of this square.  \n   - Approximate coordinates: 48.8670\u00b0 N, 2.3630\u00b0 E.",
    "formatted_address": "France",
    "types": [
      "country",
      "political"
    ],
    "source": "geocoded",
    "description": "Place de la R\u00e9publique"
  },
  "2412894098": {
    "lat": -38.416097,
    "lng": -63.61667199999999,
    "extracted_address": "Certainly!\n\n1. Guess a country: Argentina  \n   - Clues: The language on the signs is Spanish, and the event mentioned \"Rally Forestal ACE\" and \"Campeonato Rally Desaf\u00edo 2008\" suggests a motorsport rally event. The term \"Campeonato\" and the style of the signage are typical in Argentina. Additionally, \"Velarde\" and \"Centro Cultural Teatro Velarde\" hint at a Spanish-speaking country in South America, with Argentina being a strong match.\n\n2. Guess a city: Buenos Aires  \n   - Clues: The urban environment with specific cultural references such as flamenco and the style of the buildings and street align with Buenos Aires, a major cultural hub in Argentina. The presence of rally events and cultural centers with Spanish names further supports this.\n\n3. Guess a specific location or coordinate: Centro Cultural Teatro Velarde, Buenos Aires, Argentina  \n   - Clues: The sign clearly states \"Centro Cultural Teatro Velarde,\" indicating a cultural theater venue. This exact name can be searched, and it is located in Buenos Aires. Based on the visible street scene and signage, the image is most likely taken near this cultural center.  \n   - Approximate coordinates: -34.6037, -58.3816 (central Buenos Aires area, to be refined upon exact address lookup)",
    "formatted_address": "Argentina",
    "types": [
      "country",
      "political"
    ],
    "source": "geocoded",
    "description": "Centro Cultural Teatro Velarde"
  },
  "219433381": {
    "lat": 37.3861784,
    "lng": -5.992613700000001,
    "extracted_address": "The Giralda",
    "formatted_address": "Av. de la Constituci\u00f3n, s/n, Casco Antiguo, 41004 Sevilla, Spain",
    "types": [
      "establishment",
      "point_of_interest",
      "tourist_attraction"
    ],
    "source": "geocoded",
    "description": "The Giralda"
  },
  "9640910501": {
    "lat": 51.5390261,
    "lng": -0.1425516,
    "extracted_address": "Camden",
    "formatted_address": "Camden Town, London, UK",
    "types": [
      "political",
      "sublocality",
      "sublocality_level_1"
    ],
    "source": "geocoded",
    "description": "Camden"
  },
  "6995040775": {
    "lat": 34.073851,
    "lng": -118.2399583,
    "extracted_address": "Dodger Stadium",
    "formatted_address": "1000 Vin Scully Ave, Los Angeles, CA 90012, USA",
    "types": [
      "establishment",
      "point_of_interest",
      "stadium",
      "tourist_attraction"
    ],
    "source": "geocoded",
    "description": "Dodger Stadium"
  },
  "3480155072": {
    "lat": 32.7788184,
    "lng": -96.8082993,
    "extracted_address": "Dealey Plaza",
    "formatted_address": "Dealey Plaza, 400 Main St, Dallas, TX 75202, USA",
    "types": [
      "establishment",
      "park",
      "point_of_interest",
      "tourist_attraction"
    ],
    "source": "geocoded",
    "description": "Dealey Plaza"
  },
  "5628690825": {
    "lat": 48.8865728,
    "lng": 2.3408278,
    "extracted_address": "Place du Tertre",
    "formatted_address": "Pl. du Tertre, 75018 Paris, France",
    "types": [
      "establishment",
      "point_of_interest",
      "tourist_attraction"
    ],
    "source": "geocoded",
    "description": "Place du Tertre"
  },
  "2870241487": {
    "lat": 42.373465,
    "lng": -71.1189467,
    "extracted_address": "Harvard Square",
    "formatted_address": "Brattle St, Cambridge, MA 02138, USA",
    "types": [
      "establishment",
      "point_of_interest",
      "tourist_attraction"
    ],
    "source": "geocoded",
    "description": "Harvard Square"
  },
  "2500808809": {
    "lat": 55.5421127,
    "lng": 21.1207501,
    "extracted_address": "Curonian Spit National Park",
    "formatted_address": "Curonian Spit National Park, L. R\u0117zos g. 8, 93101 Neringos sav., Lithuania",
    "types": [
      "establishment",
      "park",
      "point_of_interest",
      "tourist_attraction"
    ],
    "source": "geocoded",
    "description": "Curonian Spit National Park"
  },
  "8474673006": {
    "lat": 10.7725168,
    "lng": 106.6980208,
    "extracted_address": "Ben Thanh Market",
    "formatted_address": "Ben Thanh, District 1, Ho Chi Minh City, Vietnam",
    "types": [
      "establishment",
      "point_of_interest",
      "tourist_attraction"
    ],
    "source": "geocoded",
    "description": "Ben Thanh Market"
  },
  "4016777484": {
    "lat": 54.428736,
    "lng": -2.961333,
    "extracted_address": "Ambleside",
    "formatted_address": "Ambleside LA22, UK",
    "types": [
      "locality",
      "political"
    ],
    "source": "geocoded",
    "description": "Ambleside"
  },
  "4332725043": {
    "lat": 48.379433,
    "lng": 31.16558,
    "extracted_address": "Certainly!\n\n1. Guess a country: The traditional embroidered clothing worn by some of the people in the image, along with the outdoor gathering and the style of the caps and medals, suggest Eastern Europe. The embroidery style is particularly reminiscent of Ukrainian or Belarusian traditional attire. Therefore, I would guess Ukraine.\n\n2. Guess a city: Considering the rural and folk nature of the scene, it is more likely to be outside a major metropolis. A city known for preserving traditional Ukrainian culture and folk festivals is Lviv, in Western Ukraine. Lviv is famous for its rich cultural heritage and traditional events.\n\n3. Guess a specific location or coordinate: This scene likely takes place at a cultural or folk festival, possibly in a park or open area known for such events in Lviv. One notable location for cultural festivals in Lviv is the Shevchenko Hryhorii Park area, which often hosts traditional celebrations. A rough coordinate for this location is approximately 49.8419\u00b0 N, 24.0315\u00b0 E.",
    "formatted_address": "Ukraine",
    "types": [
      "country",
      "political"
    ],
    "source": "geocoded",
    "description": "Shevchenko Hryhorii Park"
  },
  "7237017308": {
    "lat": 40.7421951,
    "lng": -73.98799919999999,
    "extracted_address": "Madison Square Park",
    "formatted_address": "Madison Square Park, 11 Madison Ave, New York, NY 10010, USA",
    "types": [
      "establishment",
      "park",
      "point_of_interest",
      "tourist_attraction"
    ],
    "source": "geocoded",
    "description": "Madison Square Park"
  },
  "182341219": {
    "lat": 52.52198139999999,
    "lng": 13.413306,
    "extracted_address": "Alexanderplatz",
    "formatted_address": "10178 Berlin, Germany",
    "types": [
      "establishment",
      "point_of_interest",
      "tourist_attraction"
    ],
    "source": "geocoded",
    "description": "Alexanderplatz"
  },
  "4280912022": {
    "lat": 18.5388356,
    "lng": -72.3119139,
    "extracted_address": "Certainly!\n\n1. Guess a country: Haiti  \n2. Guess a city: Port-au-Prince  \n3. Guess a specific location or coordinate: Near the United Nations Stabilization Mission (MINUSTAH) headquarters or a UN peacekeeping base in Port-au-Prince, approximately at coordinates 18.5392\u00b0 N, 72.3396\u00b0 W.\n\nThis inference is based on the presence of soldiers wearing blue helmets labeled \"UN,\" indicating United Nations peacekeepers. The people in line appear to be of Haitian descent, and UN peacekeepers have been prominently deployed in Haiti, especially in the capital, Port-au-Prince, to maintain security and assist in humanitarian efforts.",
    "formatted_address": "GMQQ+G6P, Port-au-Prince, Haiti",
    "types": [
      "establishment",
      "point_of_interest"
    ],
    "source": "geocoded",
    "description": "United Nations Stabilization Mission (MINUSTAH) headquarters"
  },
  "480372482": {
    "lat": 45.4658434,
    "lng": 9.1899401,
    "extracted_address": "Galleria Vittorio Emanuele II",
    "formatted_address": "20123 Milan, Metropolitan City of Milan, Italy",
    "types": [
      "establishment",
      "point_of_interest",
      "shopping_mall",
      "tourist_attraction"
    ],
    "source": "geocoded",
    "description": "Galleria Vittorio Emanuele II"
  },
  "6296560201": {
    "lat": 48.8619839,
    "lng": 2.2523138,
    "extracted_address": "Bois de Boulogne",
    "formatted_address": "Bois de Boulogne, 75016 Paris, France",
    "types": [
      "establishment",
      "park",
      "point_of_interest",
      "tourist_attraction"
    ],
    "source": "geocoded",
    "description": "Bois de Boulogne"
  },
  "4672989265": {
    "lat": 25.1023554,
    "lng": 121.5484925,
    "extracted_address": "National Palace Museum",
    "formatted_address": "No. 221, Sec 2, Zhi Shan Rd, Shilin District, Taipei City, Taiwan 111",
    "types": [
      "establishment",
      "museum",
      "point_of_interest",
      "tourist_attraction"
    ],
    "source": "geocoded",
    "description": "National Palace Museum"
  },
  "511802589": {
    "lat": 33.8120918,
    "lng": -117.9189742,
    "extracted_address": "Certainly!\n\n1. Guess a country: United States  \n2. Guess a city: Anaheim, California  \n3. Guess a specific location or coordinate: Adventureland entrance at Disneyland Park, approximately at 33.8121\u00b0 N latitude, 117.9190\u00b0 W longitude  \n\nThis is based on the distinctive \"Adventureland\" sign, which is a well-known themed area in Disneyland, located in Anaheim, California, USA. The thatched-roof style and the tribal mask decoration are iconic features of this Adventureland entrance.",
    "formatted_address": "Anaheim, CA 92802, USA",
    "types": [
      "amusement_park",
      "establishment",
      "point_of_interest",
      "tourist_attraction"
    ],
    "source": "geocoded",
    "description": "Adventureland entrance at Disneyland Park"
  },
  "515336129": {
    "lat": -8.431711199999999,
    "lng": 115.279303,
    "extracted_address": "Tegallalang Rice Terraces",
    "formatted_address": "Jl. Raya Tegallalang, Tegallalang, Kec. Tegallalang, Kabupaten Gianyar, Bali 80561, Indonesia",
    "types": [
      "establishment",
      "point_of_interest",
      "tourist_attraction"
    ],
    "source": "geocoded",
    "description": "Tegallalang Rice Terraces"
  },
  "2903159948": {
    "lat": 41.8794758,
    "lng": -87.81367,
    "extracted_address": "Forest Park",
    "formatted_address": "Forest Park, IL, USA",
    "types": [
      "locality",
      "political"
    ],
    "source": "geocoded",
    "description": "Forest Park"
  },
  "11985456966": {
    "lat": -12.9957006,
    "lng": -38.5078481,
    "extracted_address": "Terreiro do Gantois",
    "formatted_address": "Alto do Gantois, 40213-050 - Rua M\u00e3e Menininha do Gantois, 23 - Federa\u00e7\u00e3o, Salvador - BA, 40215-150, Brazil",
    "types": [
      "establishment",
      "place_of_worship",
      "point_of_interest"
    ],
    "source": "geocoded",
    "description": "Terreiro do Gantois"
  },
  "565519767": {
    "lat": 51.4994794,
    "lng": -0.1248092,
    "extracted_address": "Palace of Westminster",
    "formatted_address": "London SW1A 0AA, UK",
    "types": [
      "establishment",
      "point_of_interest",
      "tourist_attraction"
    ],
    "source": "geocoded",
    "description": "Palace of Westminster"
  },
  "539648958": {
    "lat": 38.7328166,
    "lng": -109.5746222,
    "extracted_address": "Arches National Park",
    "formatted_address": "Arches National Park, Utah, USA",
    "types": [
      "establishment",
      "park",
      "point_of_interest",
      "tourist_attraction"
    ],
    "source": "geocoded",
    "description": "Arches National Park"
  },
  "247024863": {
    "lat": 22.507712,
    "lng": 113.93164,
    "extracted_address": "Houhai",
    "formatted_address": "Nanyou, Houhai, Nanshan, Shenzhen, Guangdong Province, China, 518064",
    "types": [
      "political",
      "sublocality",
      "sublocality_level_3"
    ],
    "source": "geocoded",
    "description": "Houhai"
  },
  "4341776736": {
    "lat": 44.977753,
    "lng": -93.2650108,
    "extracted_address": "Certainly!\n\n1. Guess a country: United States  \n   Reasoning: The architecture, street design, and English language signage such as \"Hard Rock Shop\" and \"Coins\" strongly suggest a location in the United States.\n\n2. Guess a city: Minneapolis  \n   Reasoning: The visible Hard Rock Cafe sign and the style of the buildings align well with downtown Minneapolis. Additionally, the tall buildings in the background and the urban setting match known images of Minneapolis.\n\n3. Guess a specific location or coordinate:  \n   The specific location is near the Hard Rock Cafe on Nicollet Mall in downtown Minneapolis, Minnesota. The approximate coordinates are 44.9778\u00b0 N latitude, -93.2650\u00b0 W longitude. This spot is known for the Hard Rock Cafe and is a popular pedestrian area in the city.",
    "formatted_address": "Minneapolis, MN, USA",
    "types": [
      "locality",
      "political"
    ],
    "source": "geocoded",
    "description": "Hard Rock Cafe"
  },
  "5136072764": {
    "lat": 32.0804846,
    "lng": 34.7806198,
    "extracted_address": "Rabin Square",
    "formatted_address": "Rabin Square, Tel Aviv-Yafo, Israel",
    "types": [
      "establishment",
      "park",
      "point_of_interest"
    ],
    "source": "geocoded",
    "description": "Rabin Square"
  },
  "3436537095": {
    "lat": 32.7766642,
    "lng": -96.79698789999999,
    "extracted_address": "Dallas, Texas",
    "formatted_address": "Dallas, TX, USA",
    "types": [
      "locality",
      "political"
    ],
    "source": "geocoded",
    "description": "Dallas, Texas"
  },
  "7281876710": {
    "lat": 48.59776794847125,
    "lng": 2.38689704948019,
    "extracted_address": "Seine River",
    "formatted_address": "Seine, France",
    "types": [
      "establishment",
      "natural_feature"
    ],
    "source": "geocoded",
    "description": "Seine River"
  },
  "3247860886": {
    "lat": 51.3888898,
    "lng": -0.1403317,
    "extracted_address": "South London",
    "formatted_address": "South London, UK",
    "types": [
      "colloquial_area",
      "political"
    ],
    "source": "geocoded",
    "description": "South London"
  },
  "4101969711": {
    "lat": 39.66899410000001,
    "lng": -76.3794051,
    "extracted_address": "Certainly!\n\n1. Guess a country: United States  \n   - The architecture style, street layout, and the presence of signs in English suggest a location in the United States.\n\n2. Guess a city: San Francisco  \n   - The urban environment with tall buildings and the type of protest or public gathering hints at a politically active city like San Francisco. The lighting and street design are consistent with downtown San Francisco.\n\n3. Guess a specific location or coordinate: Near Market Street, San Francisco, CA  \n   - Market Street is a common location for protests and gatherings in San Francisco, surrounded by tall buildings and busy sidewalks similar to those seen in the image. This would be a plausible specific location. Coordinates approximately: 37.7749\u00b0 N, 122.4194\u00b0 W.",
    "formatted_address": "Street, MD 21154, USA",
    "types": [
      "locality",
      "political"
    ],
    "source": "geocoded",
    "description": "Market Street"
  },
  "285969802": {
    "lat": 40.6992753,
    "lng": -74.0394328,
    "extracted_address": "Ellis Island Immigration Museum",
    "formatted_address": "Ellis Is, Jersey City, NJ 07305, USA",
    "types": [
      "establishment",
      "museum",
      "point_of_interest"
    ],
    "source": "geocoded",
    "description": "Ellis Island Immigration Museum"
  },
  "5548423806": {
    "lat": 40.415511,
    "lng": -3.7074009,
    "extracted_address": "Plaza Mayor",
    "formatted_address": "Pl. Mayor, Centro, 28012 Madrid, Spain",
    "types": [
      "establishment",
      "point_of_interest",
      "tourist_attraction"
    ],
    "source": "geocoded",
    "description": "Plaza Mayor"
  },
  "1388076875": {
    "lat": 51.4559558,
    "lng": -0.3415051,
    "extracted_address": "Twickenham Stadium",
    "formatted_address": "200 Whitton Rd, Twickenham TW2 7BA, UK",
    "types": [
      "establishment",
      "point_of_interest",
      "stadium"
    ],
    "source": "geocoded",
    "description": "Twickenham Stadium"
  },
  "7521123428": {
    "lat": 35.71972555004857,
    "lng": 139.7728977260423,
    "extracted_address": "Sumida River",
    "formatted_address": "Sumida River, Tokyo, Japan",
    "types": [
      "establishment",
      "natural_feature"
    ],
    "source": "geocoded",
    "description": "Sumida River"
  },
  "682744340": {
    "lat": -25.438592,
    "lng": -49.3107687,
    "extracted_address": "Barigui Park",
    "formatted_address": "Barigui, Curitiba - PR, 80740-590, Brazil",
    "types": [
      "political",
      "sublocality",
      "sublocality_level_1"
    ],
    "source": "geocoded",
    "description": "Barigui Park"
  },
  "5765699878": {
    "lat": 55.952381,
    "lng": -3.1932741,
    "extracted_address": "Scott Monument",
    "formatted_address": "E. Princes St Gardens, Edinburgh EH2 2EJ, UK",
    "types": [
      "establishment",
      "point_of_interest",
      "tourist_attraction"
    ],
    "source": "geocoded",
    "description": "Scott Monument"
  },
  "5839161640": {
    "lat": 42.0283477,
    "lng": -93.6423456,
    "extracted_address": "Iowa State University, Department of Agronomy",
    "formatted_address": "2104, Agronomy Hall, 716 Farm House Ln, Ames, IA 50011, USA",
    "types": [
      "establishment",
      "point_of_interest"
    ],
    "source": "geocoded",
    "description": "Iowa State University, Department of Agronomy"
  },
  "446995789": {
    "lat": -13.509856,
    "lng": -71.9816878,
    "extracted_address": "Sacsayhuam\u00e1n archaeological site",
    "formatted_address": "Cusco 08002, Peru",
    "types": [
      "establishment",
      "point_of_interest",
      "tourist_attraction"
    ],
    "source": "geocoded",
    "description": "Sacsayhuam\u00e1n archaeological site"
  },
  "175835676": {
    "lat": 52.357256,
    "lng": 4.882328,
    "extracted_address": "Museumplein",
    "formatted_address": "Museumplein, 1071 DJ Amsterdam, Netherlands",
    "types": [
      "establishment",
      "park",
      "point_of_interest"
    ],
    "source": "geocoded",
    "description": "Museumplein"
  },
  "165070370": {
    "lat": 25.2866155,
    "lng": -80.89865089999999,
    "extracted_address": "Everglades National Park",
    "formatted_address": "Everglades National Park, Florida, USA",
    "types": [
      "establishment",
      "park",
      "point_of_interest",
      "tourist_attraction"
    ],
    "source": "geocoded",
    "description": "Everglades National Park"
  },
  "72918630": {
    "lat": 55.7755042,
    "lng": 37.6562754,
    "extracted_address": "Komsomolskaya station",
    "formatted_address": "Komsomolskaya Station, Moskva, Russia, 107140",
    "types": [
      "establishment",
      "point_of_interest",
      "transit_station"
    ],
    "source": "geocoded",
    "description": "Komsomolskaya station"
  },
  "3357571272": {
    "lat": 42.3602242,
    "lng": -71.05935029999999,
    "extracted_address": "Boston City Hall Plaza",
    "formatted_address": "1 City Hall Square, Boston, MA 02203, USA",
    "types": [
      "city_hall",
      "establishment",
      "local_government_office",
      "point_of_interest"
    ],
    "source": "geocoded",
    "description": "Boston City Hall Plaza"
  },
  "5348320913": {
    "lat": -33.8567844,
    "lng": 151.2152967,
    "extracted_address": "Sydney Opera House",
    "formatted_address": "Bennelong Point, Sydney NSW 2000, Australia",
    "types": [
      "establishment",
      "point_of_interest",
      "tourist_attraction"
    ],
    "source": "geocoded",
    "description": "Sydney Opera House"
  },
  "6961386470": {
    "lat": 19.4357068,
    "lng": -99.131757,
    "extracted_address": "Centro Hist\u00f3rico",
    "formatted_address": "Historic center of Mexico City, Centro, Mexico City, CDMX, Mexico",
    "types": [
      "neighborhood",
      "political"
    ],
    "source": "geocoded",
    "description": "Centro Hist\u00f3rico"
  },
  "6295982812": {
    "lat": 37.7858035,
    "lng": -122.5033753,
    "extracted_address": "Lands End Trail",
    "formatted_address": "Lands End Trail, San Francisco, CA 94121, USA",
    "types": [
      "route"
    ],
    "source": "geocoded",
    "description": "Lands End Trail"
  },
  "280847097": {
    "lat": -33.8835858,
    "lng": 151.0233446,
    "extracted_address": "Regent's Park",
    "formatted_address": "Regents Park NSW 2143, Australia",
    "types": [
      "locality",
      "political"
    ],
    "source": "geocoded",
    "description": "Regent's Park"
  },
  "5112324575": {
    "lat": 38.9909627,
    "lng": -77.0262918,
    "extracted_address": "Pacci's Neapolitan Pizzeria",
    "formatted_address": "8113 Georgia Ave, Silver Spring, MD 20910, USA",
    "types": [
      "bar",
      "establishment",
      "food",
      "point_of_interest",
      "restaurant"
    ],
    "source": "geocoded",
    "description": "Pacci's Neapolitan Pizzeria"
  },
  "5473969715": {
    "lat": 53.2728098,
    "lng": -9.052601,
    "extracted_address": "Shop Street",
    "formatted_address": "Shop St, Galway, Ireland",
    "types": [
      "route"
    ],
    "source": "geocoded",
    "description": "Shop Street"
  },
  "5596097823": {
    "lat": -26.950994,
    "lng": 152.9425622,
    "extracted_address": "Glass House Mountains National Park",
    "formatted_address": "Glass House Mountains National Park, Glass House Mountains QLD 4518, Australia",
    "types": [
      "establishment",
      "park",
      "point_of_interest",
      "tourist_attraction"
    ],
    "source": "geocoded",
    "description": "Glass House Mountains National Park"
  },
  "1521426546": {
    "lat": 43.6169002,
    "lng": 13.5337454,
    "extracted_address": "Passetto Beach",
    "formatted_address": "Via Panoramica, 60123 Ancona AN, Italy",
    "types": [
      "establishment",
      "point_of_interest",
      "tourist_attraction"
    ],
    "source": "geocoded",
    "description": "Passetto Beach"
  },
  "9546093889": {
    "lat": 53.4322936,
    "lng": -2.2286638,
    "extracted_address": "Oxford Road",
    "formatted_address": "Wilmslow Rd, Manchester, UK",
    "types": [
      "route"
    ],
    "source": "geocoded",
    "description": "Oxford Road"
  },
  "6279251255": {
    "lat": 30.0483167,
    "lng": 31.2336674,
    "extracted_address": "The Egyptian Museum",
    "formatted_address": "El-Tahrir Square, Ismailia, Qasr El Nil, Cairo Governorate 4272083, Egypt",
    "types": [
      "establishment",
      "museum",
      "point_of_interest"
    ],
    "source": "geocoded",
    "description": "The Egyptian Museum"
  },
  "6002559536": {
    "lat": 48.1534669,
    "lng": 11.5715835,
    "extracted_address": "Alter Nordfriedhof",
    "formatted_address": "Alter Nordfriedhof, Arcisstra\u00dfe 45, 80799 M\u00fcnchen, Germany",
    "types": [
      "cemetery",
      "establishment",
      "park",
      "point_of_interest"
    ],
    "source": "geocoded",
    "description": "Alter Nordfriedhof"
  },
  "1139613029": {
    "lat": 59.33235649999999,
    "lng": 18.0645449,
    "extracted_address": "Sergels torg",
    "formatted_address": "111 57 Stockholm, Sweden",
    "types": [
      "establishment",
      "point_of_interest",
      "tourist_attraction"
    ],
    "source": "geocoded",
    "description": "Sergels torg"
  },
  "2846936237": {
    "lat": 38.8875144,
    "lng": -77.0363934,
    "extracted_address": "National Mall",
    "formatted_address": "National Mall, Washington, DC, USA",
    "types": [
      "establishment",
      "park",
      "point_of_interest",
      "tourist_attraction"
    ],
    "source": "geocoded",
    "description": "National Mall"
  },
  "3007603560": {
    "lat": 37.7521164,
    "lng": -122.4206905,
    "extracted_address": "Valencia Street and 24th Street",
    "formatted_address": "Valencia St & 24th St, San Francisco, CA 94110, USA",
    "types": [
      "intersection"
    ],
    "source": "geocoded",
    "description": "Valencia Street and 24th Street"
  },
  "563945657": {
    "lat": 50.1087735,
    "lng": 8.672999599999999,
    "extracted_address": "Willy-Brandt-Platz",
    "formatted_address": "Willy-Brandt-Platz 3, 60311 Frankfurt am Main, Germany",
    "types": [
      "establishment",
      "point_of_interest",
      "tourist_attraction"
    ],
    "source": "geocoded",
    "description": "Willy-Brandt-Platz"
  },
  "13461766705": {
    "lat": 28.41553,
    "lng": -16.5399494,
    "extracted_address": "Mirador de La Paz",
    "formatted_address": "38400 Puerto de la Cruz, Santa Cruz de Tenerife, Spain",
    "types": [
      "establishment",
      "point_of_interest"
    ],
    "source": "geocoded",
    "description": "Mirador de La Paz"
  },
  "216885820": {
    "lat": 36.1796753,
    "lng": -79.7335562,
    "extracted_address": "Bryan Park",
    "formatted_address": "6275 Bryan Park Rd, Browns Summit, NC 27214, USA",
    "types": [
      "establishment",
      "point_of_interest"
    ],
    "source": "geocoded",
    "description": "Bryan Park"
  },
  "5736082154": {
    "lat": 33.7611653,
    "lng": -84.3856723,
    "extracted_address": "John Marshall Law School",
    "formatted_address": "245 Peachtree Center Ave NE # 1900, Atlanta, GA 30303, USA",
    "types": [
      "establishment",
      "point_of_interest",
      "school"
    ],
    "source": "geocoded",
    "description": "John Marshall Law School"
  },
  "822984583": {
    "lat": 51.4437384,
    "lng": -2.6381437,
    "extracted_address": "Ashton Court Estate",
    "formatted_address": "Ashton Court Estate, Long Ashton, Bristol BS41 9JN, UK",
    "types": [
      "establishment",
      "park",
      "point_of_interest",
      "tourist_attraction"
    ],
    "source": "geocoded",
    "description": "Ashton Court Estate"
  },
  "243799407": {
    "lat": 13.0170362,
    "lng": 77.5659261,
    "extracted_address": "Indian Institute of Science (IISc), Bangalore",
    "formatted_address": "CV Raman Rd, Bengaluru, Karnataka 560012, India",
    "types": [
      "establishment",
      "point_of_interest"
    ],
    "source": "geocoded",
    "description": "Indian Institute of Science (IISc), Bangalore"
  },
  "8315509448": {
    "lat": 32.730148,
    "lng": -117.1499785,
    "extracted_address": "Japanese Friendship Garden",
    "formatted_address": "Japanese Friendship Garden & Museum, 2215 Pan American E Rd, San Diego, CA 92101, USA",
    "types": [
      "establishment",
      "park",
      "point_of_interest",
      "tourist_attraction"
    ],
    "source": "geocoded",
    "description": "Japanese Friendship Garden"
  },
  "6875708677": {
    "lat": 35.665289,
    "lng": 139.726374,
    "extracted_address": "National Art Center, Tokyo",
    "formatted_address": "7-ch\u014dme-22-2 Roppongi, Minato City, Tokyo 106-8558, Japan",
    "types": [
      "establishment",
      "museum",
      "point_of_interest"
    ],
    "source": "geocoded",
    "description": "National Art Center, Tokyo"
  },
  "7962973752": {
    "lat": 44.96954789999999,
    "lng": -93.28978029999999,
    "extracted_address": "Minneapolis Sculpture Garden",
    "formatted_address": "Minneapolis Sculpture Garden, 725 Vineland Pl, Minneapolis, MN 55403, USA",
    "types": [
      "establishment",
      "park",
      "point_of_interest",
      "tourist_attraction"
    ],
    "source": "geocoded",
    "description": "Minneapolis Sculpture Garden"
  },
  "3903204544": {
    "lat": 18.8082363,
    "lng": 98.9546953,
    "extracted_address": "Chiang Mai University",
    "formatted_address": "239 Huay Kaew Rd, Tambon Su Thep, Amphoe Mueang Chiang Mai, Chang Wat Chiang Mai 50200, Thailand",
    "types": [
      "establishment",
      "point_of_interest",
      "university"
    ],
    "source": "geocoded",
    "description": "Chiang Mai University"
  },
  "556199541": {
    "lat": 12.2997484,
    "lng": 77.1772737,
    "extracted_address": "Shivanasamudra Falls",
    "formatted_address": "Shivanasamudra, Karnataka",
    "types": [
      "establishment",
      "natural_feature"
    ],
    "source": "geocoded",
    "description": "Shivanasamudra Falls"
  },
  "8406771903": {
    "lat": 38.8944395,
    "lng": -77.01989929999999,
    "extracted_address": "Indiana Avenue NW and 6th Street NW",
    "formatted_address": "Indiana Ave NW & 6th St NW, Washington, DC 20001, USA",
    "types": [
      "intersection"
    ],
    "source": "geocoded",
    "description": "Indiana Avenue NW and 6th Street NW"
  },
  "1461522249": {
    "lat": 38.8911966,
    "lng": -77.0171282,
    "extracted_address": "National Gallery of Art, East Building",
    "formatted_address": "4th St NW, Washington, DC 20565, USA",
    "types": [
      "establishment",
      "museum",
      "point_of_interest"
    ],
    "source": "geocoded",
    "description": "National Gallery of Art, East Building"
  },
  "390524954": {
    "lat": 53.5453799,
    "lng": 9.9660023,
    "extracted_address": "Landungsbr\u00fccken",
    "formatted_address": "Bei den St. Pauli-Landungsbr\u00fccken 8, 20359 Hamburg, Germany",
    "types": [
      "establishment",
      "point_of_interest",
      "tourist_attraction"
    ],
    "source": "geocoded",
    "description": "Landungsbr\u00fccken"
  },
  "3128699639": {
    "lat": 37.7858035,
    "lng": -122.5033753,
    "extracted_address": "Lands End Trail",
    "formatted_address": "Lands End Trail, San Francisco, CA 94121, USA",
    "types": [
      "route"
    ],
    "source": "geocoded",
    "description": "Lands End Trail"
  },
  "3993363938": {
    "lat": 55.7493833,
    "lng": 37.5911519,
    "extracted_address": "Arbat Street",
    "formatted_address": "Arbat St, Moskva, Russia",
    "types": [
      "route"
    ],
    "source": "geocoded",
    "description": "Arbat Street"
  },
  "5292540094": {
    "lat": 27.9806023,
    "lng": 34.3834588,
    "extracted_address": "Sharm El Sheikh International Airport",
    "formatted_address": "Sharm El Sheikh International Airport, 2 El-Salam, Sharm El Sheikh 2, South Sinai Governorate 8752202, Egypt",
    "types": [
      "airport",
      "establishment",
      "point_of_interest"
    ],
    "source": "geocoded",
    "description": "Sharm El Sheikh International Airport"
  },
  "6925234617": {
    "lat": 30.0191892,
    "lng": 31.502902,
    "extracted_address": "American University in Cairo",
    "formatted_address": "AUC Ave, New Cairo 1, Cairo Governorate 11835, Egypt",
    "types": [
      "establishment",
      "point_of_interest",
      "university"
    ],
    "source": "geocoded",
    "description": "American University in Cairo"
  },
  "7488269670": {
    "lat": 40.417955,
    "lng": -3.714311999999999,
    "extracted_address": "Royal Palace of Madrid",
    "formatted_address": "Centro, 28071 Madrid, Spain",
    "types": [
      "establishment",
      "point_of_interest",
      "tourist_attraction"
    ],
    "source": "geocoded",
    "description": "Royal Palace of Madrid"
  },
  "12714152683": {
    "lat": 36.7580878,
    "lng": 139.5987466,
    "extracted_address": "Toshogu Shrine",
    "formatted_address": "2301 Sannai, Nikko, Tochigi 321-1431, Japan",
    "types": [
      "establishment",
      "place_of_worship",
      "point_of_interest",
      "tourist_attraction"
    ],
    "source": "geocoded",
    "description": "Toshogu Shrine"
  },
  "31700873": {
    "lat": 34.6889851,
    "lng": 135.8398158,
    "extracted_address": "Todai-ji Temple",
    "formatted_address": "406-1 Z\u014dshich\u014d, Nara, 630-8587, Japan",
    "types": [
      "establishment",
      "place_of_worship",
      "point_of_interest",
      "tourist_attraction"
    ],
    "source": "geocoded",
    "description": "Todai-ji Temple"
  },
  "345199822": {
    "lat": 7.3775355,
    "lng": 3.9470396,
    "extracted_address": "Ibadan",
    "formatted_address": "Ibadan, Oyo, Nigeria",
    "types": [
      "locality",
      "political"
    ],
    "source": "geocoded",
    "description": "Ibadan"
  },
  "3511424366": {
    "lat": 57.24733329999999,
    "lng": -6.194,
    "extracted_address": "Sg\u00f9rr nan Gillean",
    "formatted_address": "Sg\u00f9rr nan Gillean, Isle of Skye IV47 8SW, UK",
    "types": [
      "establishment",
      "natural_feature"
    ],
    "source": "geocoded",
    "description": "Sg\u00f9rr nan Gillean"
  },
  "1973617618": {
    "lat": 53.95582,
    "lng": -1.07994,
    "extracted_address": "Clifford's Tower",
    "formatted_address": "Tower St, York YO1 9SA, UK",
    "types": [
      "establishment",
      "point_of_interest",
      "tourist_attraction"
    ],
    "source": "geocoded",
    "description": "Clifford's Tower"
  },
  "4716047404": {
    "lat": 40.7579747,
    "lng": -73.9855426,
    "extracted_address": "Times Square",
    "formatted_address": "Manhattan, NY 10036, USA",
    "types": [
      "establishment",
      "point_of_interest",
      "tourist_attraction"
    ],
    "source": "geocoded",
    "description": "Times Square"
  },
  "4789622814": {
    "lat": 19.4194815,
    "lng": -99.18945579999999,
    "extracted_address": "Chapultepec Park",
    "formatted_address": "Bosque de Chapultepec, Miguel Hidalgo, Ciudad de M\u00e9xico, CDMX, Mexico",
    "types": [
      "establishment",
      "park",
      "point_of_interest",
      "tourist_attraction"
    ],
    "source": "geocoded",
    "description": "Chapultepec Park"
  },
  "5948658911": {
    "lat": 46.8671484,
    "lng": -121.6998559,
    "extracted_address": "Mount Rainier National Park",
    "formatted_address": "Mount Rainier National Park, Washington, USA",
    "types": [
      "establishment",
      "park",
      "point_of_interest",
      "tourist_attraction"
    ],
    "source": "geocoded",
    "description": "Mount Rainier National Park"
  },
  "265352838": {
    "lat": 34.0335117,
    "lng": -118.4630376,
    "extracted_address": "Westside, Los Angeles",
    "formatted_address": "West LA, CA, USA",
    "types": [
      "colloquial_area",
      "political"
    ],
    "source": "geocoded",
    "description": "Westside, Los Angeles"
  },
  "3993491561": {
    "lat": 19.5437751,
    "lng": -96.91018059999999,
    "extracted_address": "Certainly!\n\n1. Guess a country: Mexico  \n   - The rocky terrain and natural water flow resemble typical landscapes found in Mexican natural parks, especially in regions known for volcanic activity and natural springs.\n\n2. Guess a city: Xalapa  \n   - Xalapa, the capital of Veracruz, is surrounded by mountainous terrain and is known for its natural parks and waterfalls. The vegetation and rock formations in the image are consistent with this area.\n\n3. Guess a specific location or coordinate: Cascada de Texolo, near Xalapa, Veracruz (approximate coordinates: 19.5060\u00b0 N, 96.9360\u00b0 W)  \n   - Cascada de Texolo is a well-known waterfall surrounded by rocky cliffs and lush greenery, often visited by tourists who take photos on the rocks near the falls, matching the scene in the image.",
    "formatted_address": "Xalapa, Ver., Mexico",
    "types": [
      "locality",
      "political"
    ],
    "source": "geocoded",
    "description": "Certainly!\n\n1. Guess a country: Mexico  \n   - The rocky terrain and natural water flow resemble typical landscapes found in Mexican natural parks, especially in regions known for volcanic activity and natural springs.\n\n2. Guess a city: Xalapa  \n   - Xalapa, the capital of Veracruz, is surrounded by mountainous terrain and is known for its natural parks and waterfalls. The vegetation and rock formations in the image are consistent with this area.\n\n3. Guess a specific location or coordinate: Cascada de Texolo, near Xalapa, Veracruz (approximate coordinates: 19.5060\u00b0 N, 96.9360\u00b0 W)  \n   - Cascada de Texolo is a well-known waterfall surrounded by rocky cliffs and lush greenery, often visited by tourists who take photos on the rocks near the falls, matching the scene in the image."
  },
  "2094118584": {
    "lat": 19.4194815,
    "lng": -99.18945579999999,
    "extracted_address": "Chapultepec Park",
    "formatted_address": "Bosque de Chapultepec, Miguel Hidalgo, Ciudad de M\u00e9xico, CDMX, Mexico",
    "types": [
      "establishment",
      "park",
      "point_of_interest",
      "tourist_attraction"
    ],
    "source": "geocoded",
    "description": "Chapultepec Park"
  },
  "5183593914": {
    "lat": 36.5693512,
    "lng": -80.9078677,
    "extracted_address": "Blue Ridge Parkway",
    "formatted_address": "Blue Rdg Pkwy, United States",
    "types": [
      "route"
    ],
    "source": "geocoded",
    "description": "Blue Ridge Parkway"
  },
  "8706699810": {
    "lat": 41.3087698,
    "lng": -72.93064609999999,
    "extracted_address": "Yale University Art Gallery Sculpture Garden",
    "formatted_address": "Sculpture Garden, New Haven, CT 06510, USA",
    "types": [
      "establishment",
      "park",
      "point_of_interest",
      "premise",
      "street_address"
    ],
    "source": "geocoded",
    "description": "Yale University Art Gallery Sculpture Garden"
  },
  "5862873516": {
    "lat": 45.468503,
    "lng": 9.182402699999999,
    "extracted_address": "Milan",
    "formatted_address": "Milan, Metropolitan City of Milan, Italy",
    "types": [
      "locality",
      "political"
    ],
    "source": "geocoded",
    "description": "Milan"
  },
  "1439764921": {
    "lat": 34.73317189999999,
    "lng": -86.58445929999999,
    "extracted_address": "Greene Street Parking Garage",
    "formatted_address": "Huntsville, AL 35801, USA",
    "types": [
      "establishment",
      "parking",
      "point_of_interest"
    ],
    "source": "geocoded",
    "description": "Greene Street Parking Garage"
  },
  "7276598480": {
    "lat": 42.360091,
    "lng": -71.09416,
    "extracted_address": "MIT",
    "formatted_address": "77 Massachusetts Ave, Cambridge, MA 02139, USA",
    "types": [
      "establishment",
      "point_of_interest",
      "university"
    ],
    "source": "geocoded",
    "description": "MIT"
  },
  "7769850426": {
    "lat": 30.2746652,
    "lng": -97.74035049999999,
    "extracted_address": "Texas State Capitol",
    "formatted_address": "1100 Congress Ave., Austin, TX 78701, USA",
    "types": [
      "establishment",
      "local_government_office",
      "point_of_interest",
      "tourist_attraction"
    ],
    "source": "geocoded",
    "description": "Texas State Capitol"
  },
  "5764250917": {
    "lat": 35.7147651,
    "lng": 139.7966553,
    "extracted_address": "Senso-ji Temple",
    "formatted_address": "2-ch\u014dme-3-1 Asakusa, Taito City, Tokyo 111-0032, Japan",
    "types": [
      "establishment",
      "place_of_worship",
      "point_of_interest",
      "tourist_attraction"
    ],
    "source": "geocoded",
    "description": "Senso-ji Temple"
  },
  "3905584273": {
    "lat": 25.0329694,
    "lng": 121.5654177,
    "extracted_address": "Certainly!\n\n1. Guess a country: Taiwan  \n2. Guess a city: Taipei  \n3. Guess a specific location or coordinate: A school courtyard or playground near a school building in Taipei, Taiwan, likely within a middle or high school, around coordinates 25.0330\u00b0 N, 121.5654\u00b0 E (central Taipei).  \n\nThis conclusion is based on the school uniforms with a logo that resembles those used in Taiwan, the style of the building and courtyard, and the appearance of the students, which aligns with East Asian school environments, particularly in Taiwan.",
    "formatted_address": "Taipei, Taiwan",
    "types": [
      "colloquial_area",
      "locality",
      "political"
    ],
    "source": "geocoded",
    "description": "Taipei School Courtyard"
  },
  "1799241727": {
    "lat": 40.7813241,
    "lng": -73.9739882,
    "extracted_address": "American Museum of Natural History",
    "formatted_address": "200 Central Prk W, New York, NY 10024, USA",
    "types": [
      "establishment",
      "museum",
      "point_of_interest",
      "tourist_attraction"
    ],
    "source": "geocoded",
    "description": "American Museum of Natural History"
  },
  "358066578": {
    "lat": 40.7579657,
    "lng": -73.9855443,
    "extracted_address": "7th Street and Broadway",
    "formatted_address": "Broadway & 7th Ave, New York, NY 10036, USA",
    "types": [
      "intersection"
    ],
    "source": "geocoded",
    "description": "7th Street and Broadway"
  },
  "5682064843": {
    "lat": 39.1700228,
    "lng": -94.48382289999999,
    "extracted_address": "Oceans of Fun Water Park",
    "formatted_address": "4545 Worlds of Fun Ave, Kansas City, MO 64161, USA",
    "types": [
      "amusement_park",
      "establishment",
      "point_of_interest"
    ],
    "source": "geocoded",
    "description": "Oceans of Fun Water Park"
  },
  "2893104391": {
    "lat": 33.7879265,
    "lng": -84.37216819999999,
    "extracted_address": "Piedmont Park",
    "formatted_address": "Piedmont Park, Atlanta, GA 30309, USA",
    "types": [
      "establishment",
      "park",
      "point_of_interest",
      "tourist_attraction"
    ],
    "source": "geocoded",
    "description": "Piedmont Park"
  },
  "5314749745": {
    "lat": 40.7579747,
    "lng": -73.9855426,
    "extracted_address": "Times Square",
    "formatted_address": "Manhattan, NY 10036, USA",
    "types": [
      "establishment",
      "point_of_interest",
      "tourist_attraction"
    ],
    "source": "geocoded",
    "description": "Times Square"
  },
  "3227947036": {
    "lat": 18.9476146,
    "lng": 72.8342861,
    "extracted_address": "Crawford Market",
    "formatted_address": "Crawford Market, Lokmanya Tilak Rd, Dhobi Talao, Chhatrapati Shivaji Terminus Area, Fort, Mumbai, Maharashtra 400001, India",
    "types": [
      "premise",
      "street_address"
    ],
    "source": "geocoded",
    "description": "Crawford Market"
  },
  "10003206806": {
    "lat": 43.5267188,
    "lng": 5.4486065,
    "extracted_address": "Cours Mirabeau",
    "formatted_address": "Cr Mirabeau, 13100 Aix-en-Provence, France",
    "types": [
      "route"
    ],
    "source": "geocoded",
    "description": "Cours Mirabeau"
  },
  "5908041850": {
    "lat": 39.4703038,
    "lng": -0.3763498,
    "extracted_address": "Pla\u00e7a de l'Ajuntament",
    "formatted_address": "Sant Francesc, Ciutat Vella, 46002 Val\u00e8ncia, Spain",
    "types": [
      "establishment",
      "point_of_interest",
      "tourist_attraction"
    ],
    "source": "geocoded",
    "description": "Pla\u00e7a de l'Ajuntament"
  },
  "2290726072": {
    "lat": 30.2616643,
    "lng": -97.722546,
    "extracted_address": "East 6th Street and Chicon Street",
    "formatted_address": "Chicon St & E 6th St, Austin, TX 78702, USA",
    "types": [
      "intersection"
    ],
    "source": "geocoded",
    "description": "East 6th Street and Chicon Street"
  },
  "523909268": {
    "lat": 48.8634916,
    "lng": 2.3274943,
    "extracted_address": "Jardin des Tuileries",
    "formatted_address": "Tuileries Garden, 75001 Paris, France",
    "types": [
      "establishment",
      "park",
      "point_of_interest",
      "tourist_attraction"
    ],
    "source": "geocoded",
    "description": "Jardin des Tuileries"
  },
  "11014929335": {
    "lat": 51.7530299,
    "lng": -1.2583612,
    "extracted_address": "Cornmarket Street, Oxford",
    "formatted_address": "Cornmarket St, Oxford OX1, UK",
    "types": [
      "route"
    ],
    "source": "geocoded",
    "description": "Cornmarket Street, Oxford"
  },
  "3427341325": {
    "lat": 64.3127094,
    "lng": -20.300721,
    "extracted_address": "Strokkur Geyser",
    "formatted_address": "8M7X+3PJ, Hafnart\u00fan, 806 Selfoss, Iceland",
    "types": [
      "establishment",
      "point_of_interest",
      "tourist_attraction"
    ],
    "source": "geocoded",
    "description": "Strokkur Geyser"
  },
  "3015282977": {
    "lat": 55.65453249999999,
    "lng": 12.6496067,
    "extracted_address": "Amager Strandpark",
    "formatted_address": "Amager Beachpark, Amager Strand Promenaden 1, 2300 K\u00f8benhavn, Denmark",
    "types": [
      "establishment",
      "park",
      "point_of_interest",
      "tourist_attraction"
    ],
    "source": "geocoded",
    "description": "Amager Strandpark"
  },
  "9001135290": {
    "lat": 38.7328166,
    "lng": -109.5746222,
    "extracted_address": "Arches National Park",
    "formatted_address": "Arches National Park, Utah, USA",
    "types": [
      "establishment",
      "park",
      "point_of_interest",
      "tourist_attraction"
    ],
    "source": "geocoded",
    "description": "Arches National Park"
  },
  "369711791": {
    "lat": 42.8804658,
    "lng": -8.5457308,
    "extracted_address": "Plaza del Obradoiro",
    "formatted_address": "Praza do Obradoiro, Santiago de Compostela, A Coru\u00f1a, Spain",
    "types": [
      "route"
    ],
    "source": "geocoded",
    "description": "Plaza del Obradoiro"
  },
  "4496629668": {
    "lat": 35.63196328608034,
    "lng": 139.7166793305288,
    "extracted_address": "Meguro River",
    "formatted_address": "Meguro River, Tokyo, Japan",
    "types": [
      "establishment",
      "natural_feature"
    ],
    "source": "geocoded",
    "description": "Meguro River"
  },
  "6817087374": {
    "lat": 42.3521821,
    "lng": -71.0512911,
    "extracted_address": "Boston Tea Party Ships & Museum",
    "formatted_address": "306 Congress St, Boston, MA 02210, USA",
    "types": [
      "establishment",
      "museum",
      "point_of_interest",
      "tourist_attraction"
    ],
    "source": "geocoded",
    "description": "Boston Tea Party Ships & Museum"
  },
  "1301398204": {
    "lat": 48.8606111,
    "lng": 2.337644,
    "extracted_address": "The Louvre Museum",
    "formatted_address": "75001 Paris, France",
    "types": [
      "establishment",
      "museum",
      "point_of_interest",
      "tourist_attraction"
    ],
    "source": "geocoded",
    "description": "The Louvre Museum"
  },
  "3031378811": {
    "lat": 4.7896956,
    "lng": -75.3763646,
    "extracted_address": "Los Nevados National Natural Park",
    "formatted_address": "Los Nevados National Park, Carretera Manizales - Bogot\u00e1 Km. 45, Murillo, Pereira, Tolima, Colombia",
    "types": [
      "establishment",
      "park",
      "point_of_interest",
      "tourist_attraction"
    ],
    "source": "geocoded",
    "description": "Los Nevados National Natural Park"
  },
  "4535662044": {
    "lat": 35.6604139,
    "lng": 139.698578,
    "extracted_address": "Shibuya Center-gai",
    "formatted_address": "Shibuya Center-Gai, Udagawach\u014d, Shibuya, Tokyo 150-0042, Japan",
    "types": [
      "route"
    ],
    "source": "geocoded",
    "description": "Shibuya Center-gai"
  },
  "7692193950": {
    "lat": 52.52198139999999,
    "lng": 13.413306,
    "extracted_address": "Alexanderplatz",
    "formatted_address": "10178 Berlin, Germany",
    "types": [
      "establishment",
      "point_of_interest",
      "tourist_attraction"
    ],
    "source": "geocoded",
    "description": "Alexanderplatz"
  },
  "9318404306": {
    "lat": 38.7066464,
    "lng": 20.64073,
    "extracted_address": "Lefkada",
    "formatted_address": "Lefkada, Lefkada Municipality, Greece",
    "types": [
      "establishment",
      "natural_feature"
    ],
    "source": "geocoded",
    "description": "Lefkada"
  },
  "522146989": {
    "lat": 50.94127839999999,
    "lng": 6.9582814,
    "extracted_address": "Cologne Cathedral (K\u00f6lner Dom",
    "formatted_address": "Domkloster 4, 50667 K\u00f6ln, Germany",
    "types": [
      "church",
      "establishment",
      "museum",
      "place_of_worship",
      "point_of_interest",
      "tourist_attraction"
    ],
    "source": "geocoded",
    "description": "Cologne Cathedral (K\u00f6lner Dom"
  },
  "4441179970": {
    "lat": 37.2939104,
    "lng": 127.2025664,
    "extracted_address": "Everland Resort",
    "formatted_address": "199 Everland-ro, Pogok-eup, Cheoin-gu, Yongin-si, Gyeonggi-do, South Korea",
    "types": [
      "amusement_park",
      "establishment",
      "point_of_interest",
      "tourist_attraction"
    ],
    "source": "geocoded",
    "description": "Everland Resort"
  },
  "1097920068": {
    "lat": 37.7954425,
    "lng": -122.3936136,
    "extracted_address": "Certainly!\n\n1. Guess a country: United States  \n2. Guess a city: San Francisco  \n3. Guess a specific location or coordinate: The image likely shows a caf\u00e9 or outdoor seating area near the Ferry Building Marketplace at the Embarcadero, around 37.7955\u00b0 N latitude and 122.3937\u00b0 W longitude. The presence of bicycles and casual attire, combined with the urban waterfront setting and the style of street furniture, supports this guess.",
    "formatted_address": "1 Ferry Building, San Francisco, CA 94105, USA",
    "types": [
      "establishment",
      "food",
      "grocery_or_supermarket",
      "point_of_interest",
      "store"
    ],
    "source": "geocoded",
    "description": "Ferry Building Marketplace"
  },
  "10121282706": {
    "lat": 45.4354635,
    "lng": 12.3447047,
    "extracted_address": "Church of San Giorgio dei Greci",
    "formatted_address": "Calle dei Greci, 3422, 30122 Venezia VE, Italy",
    "types": [
      "church",
      "establishment",
      "place_of_worship",
      "point_of_interest",
      "tourist_attraction"
    ],
    "source": "geocoded",
    "description": "Church of San Giorgio dei Greci"
  },
  "4811750972": {
    "lat": 39.904211,
    "lng": 116.407395,
    "extracted_address": "Beijing South Railway Station Bus Terminal",
    "formatted_address": "Beijing, China",
    "types": [
      "locality",
      "political"
    ],
    "source": "geocoded",
    "description": "Beijing South Railway Station Bus Terminal"
  },
  "3881805795": {
    "lat": -14.235004,
    "lng": -51.92528,
    "extracted_address": "Certainly!\n\n1. Guess a country: Brazil  \n   Reasoning: The architecture and urban setting, combined with the informal housing style and the presence of a bicycle, resemble favelas commonly found in Brazil. The layout and wear of the buildings suggest a tropical or subtropical urban environment typical in many Brazilian cities.\n\n2. Guess a city: Rio de Janeiro  \n   Reasoning: Rio de Janeiro is well known for its extensive favelas with narrow alleyways, clothes hanging on lines, and dilapidated buildings. The specific style of the windows and the overall atmosphere of the image are reminiscent of many parts of Rio\u2019s hillside communities.\n\n3. Guess a specific location or coordinate: Rocinha Favela, Rio de Janeiro, Brazil (approximately -22.9540, -43.2110)  \n   Reasoning: Rocinha is the largest favela in Rio and is iconic for its dense housing, narrow alleys, and similar architectural degradation. The image\u2019s characteristics strongly suggest this area or a similar favela in Rio.",
    "formatted_address": "Brazil",
    "types": [
      "country",
      "political"
    ],
    "source": "geocoded",
    "description": "Rocinha Favela"
  },
  "2790764148": {
    "lat": 51.51449179999999,
    "lng": -0.0803065,
    "extracted_address": "The Gherkin",
    "formatted_address": "30 St Mary Axe, London EC3A 8BF, UK",
    "types": [
      "establishment",
      "landmark",
      "point_of_interest",
      "tourist_attraction"
    ],
    "source": "geocoded",
    "description": "The Gherkin"
  },
  "2767333569": {
    "lat": 37.7897114,
    "lng": -122.4011703,
    "extracted_address": "Market Street near the intersection with 3rd Street, San Francisco, CA",
    "formatted_address": "564 Market St #314, San Francisco, CA 94104, USA",
    "types": [
      "establishment",
      "point_of_interest"
    ],
    "source": "geocoded",
    "description": "Market Street near the intersection with 3rd Street, San Francisco, CA"
  },
  "756531584": {
    "lat": 37.7459192,
    "lng": -119.5331992,
    "extracted_address": "Half Dome",
    "formatted_address": "Half Dome, California, USA",
    "types": [
      "establishment",
      "natural_feature"
    ],
    "source": "geocoded",
    "description": "Half Dome"
  },
  "3641518435": {
    "lat": 38.7945952,
    "lng": -106.5348379,
    "extracted_address": "Certainly!\n\n1. Guess a country: United States  \n   Reasoning: The architecture style, the high-rise buildings under construction, and the overall urban landscape suggest a developed city in the United States. The people\u2019s attire also aligns with typical business wear found in American cities.\n\n2. Guess a city: Dallas, Texas  \n   Reasoning: The tall, partially constructed skyscraper with a distinctive modern glass facade is reminiscent of Dallas' skyline. The visible buildings in the background, including a few recognizable structures, align with Dallas' downtown area.\n\n3. Guess a specific location or coordinate: Inside a high-rise office building in downtown Dallas, possibly on a high floor of a building near the 1500 Main Street or Bank of America Plaza area. Approximate coordinates: 32.7791\u00b0 N, 96.8005\u00b0 W  \n   Reasoning: The vantage point suggests a high floor with a broad view of the downtown skyline. The window framing and the silhouettes of the individuals indicate an office setting, likely in a commercial skyscraper overlooking the core business district of Dallas.",
    "formatted_address": "United States",
    "types": [
      "country",
      "political"
    ],
    "source": "geocoded",
    "description": "1500 Main Street"
  },
  "2694726216": {
    "lat": 40.746716,
    "lng": -73.9582075,
    "extracted_address": "Gantry Plaza State Park",
    "formatted_address": "Gantry Plaza State Park, 4-44 47th Rd, Long Island City, NY 11101, USA",
    "types": [
      "establishment",
      "park",
      "point_of_interest",
      "tourist_attraction"
    ],
    "source": "geocoded",
    "description": "Gantry Plaza State Park"
  },
  "628184053": {
    "lat": 64.42196899999999,
    "lng": -16.7902035,
    "extracted_address": "Vatnaj\u00f6kull glacier",
    "formatted_address": "Vatnajokull, Iceland",
    "types": [
      "establishment",
      "natural_feature"
    ],
    "source": "geocoded",
    "description": "Vatnaj\u00f6kull glacier"
  },
  "1386606787": {
    "lat": -33.9117977,
    "lng": 18.4226978,
    "extracted_address": "V&A Waterfront",
    "formatted_address": "Victoria & Alfred Waterfront, Cape Town, South Africa",
    "types": [
      "political",
      "sublocality",
      "sublocality_level_2"
    ],
    "source": "geocoded",
    "description": "V&A Waterfront"
  },
  "427836902": {
    "lat": 43.7624972,
    "lng": 11.2483996,
    "extracted_address": "Boboli Gardens",
    "formatted_address": "Boboli Gardens, 50125 Firenze FI, Italy",
    "types": [
      "establishment",
      "park",
      "point_of_interest",
      "tourist_attraction"
    ],
    "source": "geocoded",
    "description": "Boboli Gardens"
  },
  "6292826": {
    "lat": 45.4384001,
    "lng": 12.3072121,
    "extracted_address": "Port of Venice",
    "formatted_address": "Santa Croce, 30100 Venice, Metropolitan City of Venice, Italy",
    "types": [
      "establishment",
      "point_of_interest"
    ],
    "source": "geocoded",
    "description": "Port of Venice"
  },
  "329033253": {
    "lat": 39.6251129,
    "lng": 19.9226604,
    "extracted_address": "Serbian Orthodox Church of San Spiridione",
    "formatted_address": "Agiou Spiridonos 32, Kerkira 491 00, Greece",
    "types": [
      "church",
      "establishment",
      "place_of_worship",
      "point_of_interest"
    ],
    "source": "geocoded",
    "description": "Serbian Orthodox Church of San Spiridione"
  },
  "2927129825": {
    "lat": 49.3592091,
    "lng": -0.8554058999999999,
    "extracted_address": "Normandy American Cemetery and Memorial",
    "formatted_address": "Normandy American Cemetery, Rte du Cimetiere Americain, 14710 Colleville-sur-Mer, France",
    "types": [
      "cemetery",
      "church",
      "establishment",
      "park",
      "place_of_worship",
      "point_of_interest",
      "tourist_attraction"
    ],
    "source": "geocoded",
    "description": "Normandy American Cemetery and Memorial"
  },
  "2321003896": {
    "lat": 47.5152483,
    "lng": 19.0830158,
    "extracted_address": "City Park (V\u00e1rosliget",
    "formatted_address": "Budapest, City Park, 1146 Hungary",
    "types": [
      "neighborhood",
      "political"
    ],
    "source": "geocoded",
    "description": "City Park (V\u00e1rosliget"
  },
  "415815332": {
    "lat": 35.0036559,
    "lng": 135.7785534,
    "extracted_address": "Yasaka Shrine",
    "formatted_address": "625 Gionmachi Kitagawa, Higashiyama Ward, Kyoto, 605-0073, Japan",
    "types": [
      "establishment",
      "place_of_worship",
      "point_of_interest",
      "tourist_attraction"
    ],
    "source": "geocoded",
    "description": "Yasaka Shrine"
  },
  "5923624371": {
    "lat": 40.7410605,
    "lng": -73.9896986,
    "extracted_address": "Flatiron Building",
    "formatted_address": "175 5th Ave, New York, NY 10010, USA",
    "types": [
      "establishment",
      "point_of_interest",
      "tourist_attraction"
    ],
    "source": "geocoded",
    "description": "Flatiron Building"
  },
  "523184139": {
    "lat": 45.7606834,
    "lng": 4.8199292,
    "extracted_address": "Funicular de Fourvi\u00e8re",
    "formatted_address": "Fourvi\u00e8re, 69005 Lyon, France",
    "types": [
      "neighborhood",
      "political"
    ],
    "source": "geocoded",
    "description": "Funicular de Fourvi\u00e8re"
  },
  "8307089134": {
    "lat": 41.9027357,
    "lng": 12.4962233,
    "extracted_address": "Piazza della Repubblica",
    "formatted_address": "P.za della Repubblica, 00185 Roma RM, Italy",
    "types": [
      "establishment",
      "point_of_interest"
    ],
    "source": "geocoded",
    "description": "Piazza della Repubblica"
  },
  "5034153774": {
    "lat": 43.0926367,
    "lng": -89.3346028,
    "extracted_address": "Olbrich Botanical Gardens",
    "formatted_address": "Olbrich Botanical Gardens, 3330 Atwood Ave, Madison, WI 53704, USA",
    "types": [
      "establishment",
      "park",
      "point_of_interest",
      "store",
      "tourist_attraction"
    ],
    "source": "geocoded",
    "description": "Olbrich Botanical Gardens"
  },
  "4134663298": {
    "lat": 45.7908431,
    "lng": 6.970942099999999,
    "extracted_address": "Courmayeur",
    "formatted_address": "11013 Courmayeur, Aosta Valley, Italy",
    "types": [
      "locality",
      "political"
    ],
    "source": "geocoded",
    "description": "Courmayeur"
  },
  "352380518": {
    "lat": 36.0569695,
    "lng": -112.1400606,
    "extracted_address": "South Rim of the Grand Canyon",
    "formatted_address": "Grand Canyon Village, AZ 86023, USA",
    "types": [
      "establishment",
      "point_of_interest"
    ],
    "source": "geocoded",
    "description": "South Rim of the Grand Canyon"
  },
  "7467989216": {
    "lat": -33.8354222,
    "lng": 151.0654301,
    "extracted_address": "Olympic Park",
    "formatted_address": "Sydney Olympic Park NSW 2127, Australia",
    "types": [
      "locality",
      "political"
    ],
    "source": "geocoded",
    "description": "Olympic Park"
  },
  "9309870009": {
    "lat": 50.503887,
    "lng": 4.469936,
    "extracted_address": "Certainly!\n\n1. Guess a country: Belgium  \n   - The architectural style, including the red brick and tiled roofs, is typical of Northern European countries, especially Belgium.  \n   - The presence of a church steeple in the background matches many Belgian towns and cities that have historic churches.\n\n2. Guess a city: Ghent  \n   - Ghent is known for its numerous old buildings with similar roofing and brickwork.  \n   - The church spire seen in the background resembles the style found in Ghent\u2019s historic center.\n\n3. Guess a specific location or coordinate: Near Saint Nicholas' Church, Ghent (approximate coordinates 51.0534\u00b0N, 3.7203\u00b0E)  \n   - The church spire visible in the image is likely that of Saint Nicholas' Church, a prominent landmark in Ghent.  \n   - The rooftops and narrow alleys around this church fit well with the scene shown in the photo.",
    "formatted_address": "Belgium",
    "types": [
      "country",
      "political"
    ],
    "source": "geocoded",
    "description": "Saint Nicholas' Church"
  },
  "5402766188": {
    "lat": 32.47671820000001,
    "lng": -93.7893249,
    "extracted_address": "Hirsch Memorial Coliseum",
    "formatted_address": "3207 Pershing Blvd, Shreveport, LA 71109, USA",
    "types": [
      "establishment",
      "point_of_interest",
      "stadium"
    ],
    "source": "geocoded",
    "description": "Hirsch Memorial Coliseum"
  },
  "325392247": {
    "lat": 51.4968464,
    "lng": -115.9280561,
    "extracted_address": "Banff National Park",
    "formatted_address": "Banff National Park, Improvement District No. 9, AB T0L, Canada",
    "types": [
      "establishment",
      "park",
      "point_of_interest"
    ],
    "source": "geocoded",
    "description": "Banff National Park"
  },
  "311861136": {
    "lat": 31.324224,
    "lng": 120.62997,
    "extracted_address": "Humble Administrator's Garden",
    "formatted_address": "178 Dong Bei Jie, Gu Su Qu, Su Zhou Shi, Jiang Su Sheng, China, 215001",
    "types": [
      "establishment",
      "point_of_interest",
      "tourist_attraction"
    ],
    "source": "geocoded",
    "description": "Humble Administrator's Garden"
  },
  "1896392812": {
    "lat": 36.6180088,
    "lng": -121.9419115,
    "extracted_address": "Asilomar State Beach",
    "formatted_address": "Asilomar State Beach, Sunset Dr, Pacific Grove, CA 93950, USA",
    "types": [
      "establishment",
      "park",
      "point_of_interest",
      "tourist_attraction"
    ],
    "source": "geocoded",
    "description": "Asilomar State Beach"
  },
  "8251381751": {
    "lat": 41.00838400000001,
    "lng": 28.977878,
    "extracted_address": "Basilica Cistern",
    "formatted_address": "Alemdar, Yerebatan Cd. 1/3, 34110 Fatih/\u0130stanbul, T\u00fcrkiye",
    "types": [
      "establishment",
      "museum",
      "point_of_interest",
      "tourist_attraction"
    ],
    "source": "geocoded",
    "description": "Basilica Cistern"
  },
  "10537366026": {
    "lat": 12.879721,
    "lng": 121.774017,
    "extracted_address": "Certainly!\n\n1. Guess a country: The image shows a tropical beach setting with small boats typical of Southeast Asian coastal areas. The people\u2019s appearance and the style of boats suggest the Philippines, known for its numerous islands and vibrant beach culture.\n\n2. Guess a city: Considering the boats and the relaxed beachfront vibe, the city is likely to be Puerto Galera, a popular coastal destination in the Philippines famous for its white sandy beaches and clear waters.\n\n3. Guess a specific location or coordinate: The image could be taken from one of the beachfront restaurants or bars along White Beach in Puerto Galera, near the approximate coordinates 13.4620\u00b0 N, 120.9514\u00b0 E, a well-known spot for tourists to relax and enjoy the seascape.",
    "formatted_address": "Philippines",
    "types": [
      "country",
      "political"
    ],
    "source": "geocoded",
    "description": "White Beach"
  },
  "4218701807": {
    "lat": 51.5390261,
    "lng": -0.1425516,
    "extracted_address": "Camden Town",
    "formatted_address": "Camden Town, London, UK",
    "types": [
      "political",
      "sublocality",
      "sublocality_level_1"
    ],
    "source": "geocoded",
    "description": "Camden Town"
  },
  "13363473424": {
    "lat": 31.5072599,
    "lng": -97.0861331,
    "extracted_address": "University Parks",
    "formatted_address": "S University Parks Dr, Texas, USA",
    "types": [
      "route"
    ],
    "source": "geocoded",
    "description": "University Parks"
  },
  "2884204484": {
    "lat": 35.6604621,
    "lng": 139.7292785,
    "extracted_address": "Mori Art Museum",
    "formatted_address": "Japan, \u3012106-6150 Tokyo, Minato City, Roppongi, 6-ch\u014dme\u221210\u2212\uff11 Roppongi Hills Mori Tower, 53\u968e",
    "types": [
      "establishment",
      "museum",
      "point_of_interest"
    ],
    "source": "geocoded",
    "description": "Mori Art Museum"
  },
  "178966363": {
    "lat": 45.5083931,
    "lng": -122.6660355,
    "extracted_address": "Oregon Museum of Science and Industry (OMSI",
    "formatted_address": "1945 SE Water Ave, Portland, OR 97214, USA",
    "types": [
      "establishment",
      "museum",
      "point_of_interest"
    ],
    "source": "geocoded",
    "description": "Oregon Museum of Science and Industry (OMSI"
  },
  "683194672": {
    "lat": 35.659482,
    "lng": 139.7005596,
    "extracted_address": "Shibuya Crossing",
    "formatted_address": "21 Udagawacho, Shibuya, Tokyo 150-0042, Japan",
    "types": [
      "establishment",
      "point_of_interest",
      "tourist_attraction"
    ],
    "source": "geocoded",
    "description": "Shibuya Crossing"
  },
  "8203034515": {
    "lat": 49.282238,
    "lng": -123.1101458,
    "extracted_address": "Victory Square",
    "formatted_address": "Victory Square, 200 W Hastings St, Vancouver, BC V6B 1G8, Canada",
    "types": [
      "establishment",
      "park",
      "point_of_interest",
      "tourist_attraction"
    ],
    "source": "geocoded",
    "description": "Victory Square"
  },
  "109444762": {
    "lat": 37.7467314,
    "lng": -122.4863492,
    "extracted_address": "Sunset District",
    "formatted_address": "Sunset District, San Francisco, CA, USA",
    "types": [
      "neighborhood",
      "political"
    ],
    "source": "geocoded",
    "description": "Sunset District"
  },
  "8815795798": {
    "lat": 35.6580339,
    "lng": 139.7016358,
    "extracted_address": "Shibuya Station",
    "formatted_address": "Shibuya Station, 2-ch\u014dme-24 Shibuya, Tokyo 150-0002, Japan",
    "types": [
      "establishment",
      "point_of_interest",
      "subway_station",
      "train_station",
      "transit_station"
    ],
    "source": "geocoded",
    "description": "Shibuya Station"
  },
  "8306613715": {
    "lat": 29.7352371,
    "lng": -95.36562990000002,
    "extracted_address": "Emancipation Park",
    "formatted_address": "Emancipation Park, 3018 Emancipation Ave, Houston, TX 77004, USA",
    "types": [
      "establishment",
      "park",
      "point_of_interest",
      "tourist_attraction"
    ],
    "source": "geocoded",
    "description": "Emancipation Park"
  },
  "458444286": {
    "lat": 35.0389778,
    "lng": 135.7730068,
    "extracted_address": "Shimogamo Shrine",
    "formatted_address": "Japan, \u3012606-0807 \u4eac\u90fd\u5e9c\u4eac\u90fd\u5e02\u5de6\u4eac\u533a\u4e0b\u9d28\u6cc9\u5ddd\u753a\uff15\uff19",
    "types": [
      "establishment",
      "place_of_worship",
      "point_of_interest",
      "tourist_attraction"
    ],
    "source": "geocoded",
    "description": "Shimogamo Shrine"
  },
  "5561023319": {
    "lat": 52.50502239999999,
    "lng": 13.4396953,
    "extracted_address": "East Side Gallery",
    "formatted_address": "M\u00fchlenstra\u00dfe, 10243 Berlin, Germany",
    "types": [
      "art_gallery",
      "establishment",
      "landmark",
      "point_of_interest",
      "tourist_attraction"
    ],
    "source": "geocoded",
    "description": "East Side Gallery"
  },
  "3974322793": {
    "lat": 43.4687503,
    "lng": -3.767635899999999,
    "extracted_address": "Magdalena Peninsula",
    "formatted_address": "Magdalena Peninsula, Santander, Cantabria, Spain",
    "types": [
      "establishment",
      "natural_feature"
    ],
    "source": "geocoded",
    "description": "Magdalena Peninsula"
  },
  "976532479": {
    "lat": 37.7849611,
    "lng": -122.4188778,
    "extracted_address": "The Great American Music Hall",
    "formatted_address": "859 O'Farrell St, San Francisco, CA 94109, USA",
    "types": [
      "establishment",
      "night_club",
      "point_of_interest"
    ],
    "source": "geocoded",
    "description": "The Great American Music Hall"
  },
  "968293102": {
    "lat": 34.055691,
    "lng": -118.2487702,
    "extracted_address": "Downtown Los Angeles",
    "formatted_address": "Downtown Los Angeles, Los Angeles, CA, USA",
    "types": [
      "neighborhood",
      "political"
    ],
    "source": "geocoded",
    "description": "Downtown Los Angeles"
  },
  "2337753762": {
    "lat": 51.5251066,
    "lng": -0.0347399,
    "extracted_address": "Tower Hamlets",
    "formatted_address": "London Borough of Tower Hamlets, UK",
    "types": [
      "administrative_area_level_3",
      "political"
    ],
    "source": "geocoded",
    "description": "Tower Hamlets"
  },
  "4937975485": {
    "lat": 52.1810072,
    "lng": 0.0932245,
    "extracted_address": "Grantchester",
    "formatted_address": "Grantchester, Cambridge CB3, UK",
    "types": [
      "locality",
      "political"
    ],
    "source": "geocoded",
    "description": "Grantchester"
  },
  "2153205662": {
    "lat": 40.7794366,
    "lng": -73.963244,
    "extracted_address": "The Metropolitan Museum of Art",
    "formatted_address": "1000 5th Ave, New York, NY 10028, USA",
    "types": [
      "establishment",
      "museum",
      "point_of_interest",
      "tourist_attraction"
    ],
    "source": "geocoded",
    "description": "The Metropolitan Museum of Art"
  },
  "311141742": {
    "lat": 37.579617,
    "lng": 126.977041,
    "extracted_address": "Gyeongbokgung Palace",
    "formatted_address": "161 Sajik-ro, Jongno District, Seoul, South Korea",
    "types": [
      "establishment",
      "point_of_interest",
      "tourist_attraction"
    ],
    "source": "geocoded",
    "description": "Gyeongbokgung Palace"
  },
  "5395039226": {
    "lat": 40.7479925,
    "lng": -74.0047649,
    "extracted_address": "The High Line",
    "formatted_address": "The High Line, New York, NY 10011, USA",
    "types": [
      "establishment",
      "park",
      "point_of_interest",
      "tourist_attraction"
    ],
    "source": "geocoded",
    "description": "The High Line"
  },
  "266092150": {
    "lat": 33.6520083,
    "lng": -84.3986366,
    "extracted_address": "Porsche Experience Center",
    "formatted_address": "One Porsche Dr, Atlanta, GA 30354, USA",
    "types": [
      "establishment",
      "food",
      "point_of_interest",
      "restaurant"
    ],
    "source": "geocoded",
    "description": "Porsche Experience Center"
  },
  "97344146": {
    "lat": 41.4036299,
    "lng": 2.1743558,
    "extracted_address": "Sagrada Fam\u00edlia",
    "formatted_address": "Carrer de Mallorca, 401, L'Eixample, 08013 Barcelona, Spain",
    "types": [
      "church",
      "establishment",
      "place_of_worship",
      "point_of_interest",
      "tourist_attraction"
    ],
    "source": "geocoded",
    "description": "Sagrada Fam\u00edlia"
  },
  "4916969136": {
    "lat": 29.0812915,
    "lng": -82.05333619999999,
    "extracted_address": "The Arts District",
    "formatted_address": "8685 SE 58th Ave, Belleview, FL 34420, USA",
    "types": [
      "establishment",
      "point_of_interest"
    ],
    "source": "geocoded",
    "description": "The Arts District"
  },
  "2088763517": {
    "lat": 39.9996674,
    "lng": 116.3264439,
    "extracted_address": "Tsinghua University",
    "formatted_address": "30 Shuang Qing Lu, \u84dd\u65d7\u8425 Hai Dian Qu, Bei Jing Shi, China, 100190",
    "types": [
      "establishment",
      "point_of_interest",
      "university"
    ],
    "source": "geocoded",
    "description": "Tsinghua University"
  },
  "1873728": {
    "lat": 33.6888431,
    "lng": -84.3034294,
    "extracted_address": "Interstate 285",
    "formatted_address": "I-285, Georgia, USA",
    "types": [
      "route"
    ],
    "source": "geocoded",
    "description": "Interstate 285"
  },
  "9393468013": {
    "lat": 31.719916,
    "lng": -110.0705999,
    "extracted_address": "Boothill Graveyard",
    "formatted_address": "408 AZ-80, Tombstone, AZ 85638, USA",
    "types": [
      "cemetery",
      "establishment",
      "point_of_interest"
    ],
    "source": "geocoded",
    "description": "Boothill Graveyard"
  },
  "486640035": {
    "lat": 37.1767291,
    "lng": -3.5959164,
    "extracted_address": "Plaza Nueva",
    "formatted_address": "Pl. Nueva, 18010 Granada, Spain",
    "types": [
      "route"
    ],
    "source": "geocoded",
    "description": "Plaza Nueva"
  },
  "1386768513": {
    "lat": 48.871263,
    "lng": 2.3551293,
    "extracted_address": "Passage Brady",
    "formatted_address": "Pass. Brady, 75010 Paris, France",
    "types": [
      "route"
    ],
    "source": "geocoded",
    "description": "Passage Brady"
  },
  "1351246086": {
    "lat": 33.315241,
    "lng": 44.3660671,
    "extracted_address": "Forward Operating Base in Baghdad",
    "formatted_address": "Baghdad, Baghdad Governorate, Iraq",
    "types": [
      "locality",
      "political"
    ],
    "source": "geocoded",
    "description": "Forward Operating Base in Baghdad"
  },
  "4881727444": {
    "lat": 37.7650687,
    "lng": -122.4196966,
    "extracted_address": "16th Street and Mission Street, San Francisco",
    "formatted_address": "Mission St & 16th St, San Francisco, CA 94103, USA",
    "types": [
      "intersection"
    ],
    "source": "geocoded",
    "description": "16th Street and Mission Street, San Francisco"
  },
  "6074064623": {
    "lat": 38.9775775,
    "lng": -76.48596669999999,
    "extracted_address": "Annapolis City Dock",
    "formatted_address": "Annapolis City Dock, Dock St, Annapolis, MD 21401, USA",
    "types": [
      "establishment",
      "park",
      "point_of_interest",
      "tourist_attraction"
    ],
    "source": "geocoded",
    "description": "Annapolis City Dock"
  },
  "11175831776": {
    "lat": 50.4503596,
    "lng": 30.5245025,
    "extracted_address": "Kyiv City State Administration building",
    "formatted_address": "Kyiv, Ukraine, 02000",
    "types": [
      "locality",
      "political"
    ],
    "source": "geocoded",
    "description": "Kyiv City State Administration building"
  },
  "456712325": {
    "lat": 1.2815683,
    "lng": 103.8636132,
    "extracted_address": "Gardens by the Bay",
    "formatted_address": "18 Marina Gardens Dr, Gardens by the Bay, Singapore 018953",
    "types": [
      "establishment",
      "park",
      "point_of_interest",
      "tourist_attraction"
    ],
    "source": "geocoded",
    "description": "Gardens by the Bay"
  },
  "4543358981": {
    "lat": 39.8052117,
    "lng": -77.2421427,
    "extracted_address": "Gettysburg National Military Park",
    "formatted_address": "Gettysburg, PA 17325, USA",
    "types": [
      "establishment",
      "point_of_interest"
    ],
    "source": "geocoded",
    "description": "Gettysburg National Military Park"
  },
  "39672922": {
    "lat": 45.062419,
    "lng": 7.6787001,
    "extracted_address": "Porta Nuova",
    "formatted_address": "Porta Nuova, C.so Vittorio Emanuele II, 58, 10121 Torino TO, Italy",
    "types": [
      "establishment",
      "point_of_interest",
      "train_station",
      "transit_station"
    ],
    "source": "geocoded",
    "description": "Porta Nuova"
  },
  "6779799981": {
    "lat": 1.2892988,
    "lng": 103.8631368,
    "extracted_address": "Singapore Flyer",
    "formatted_address": "30 Raffles Ave., Singapore 039803",
    "types": [
      "establishment",
      "point_of_interest",
      "tourist_attraction"
    ],
    "source": "geocoded",
    "description": "Singapore Flyer"
  },
  "4745840637": {
    "lat": 35.6896067,
    "lng": 139.7005713,
    "extracted_address": "Shinjuku Station",
    "formatted_address": "Shinjuku Station, 3-ch\u014dme-38-1 Shinjuku, Shinjuku City, Tokyo 160-0022, Japan",
    "types": [
      "establishment",
      "point_of_interest",
      "subway_station",
      "train_station",
      "transit_station"
    ],
    "source": "geocoded",
    "description": "Shinjuku Station"
  },
  "88585744": {
    "lat": 12.0518011,
    "lng": 24.8804853,
    "extracted_address": "Nyala",
    "formatted_address": "Nyala, Sudan",
    "types": [
      "locality",
      "political"
    ],
    "source": "geocoded",
    "description": "Nyala"
  },
  "2042084815": {
    "lat": 40.5860224,
    "lng": -73.81662589999999,
    "extracted_address": "Rockaway Beach",
    "formatted_address": "Rockaway Beach, Queens, NY, USA",
    "types": [
      "neighborhood",
      "political"
    ],
    "source": "geocoded",
    "description": "Rockaway Beach"
  },
  "2096637293": {
    "lat": 51.5073638,
    "lng": -0.1641135,
    "extracted_address": "Hyde Park",
    "formatted_address": "Hyde Park, London, UK",
    "types": [
      "establishment",
      "park",
      "point_of_interest",
      "tourist_attraction"
    ],
    "source": "geocoded",
    "description": "Hyde Park"
  },
  "4659077680": {
    "lat": 35.1610807,
    "lng": -111.2792067,
    "extracted_address": "Twin Arrows Trading Post",
    "formatted_address": "Flagstaff, AZ 86004, USA",
    "types": [
      "establishment",
      "point_of_interest",
      "tourist_attraction"
    ],
    "source": "geocoded",
    "description": "Twin Arrows Trading Post"
  },
  "2315275238": {
    "lat": -33.9148354,
    "lng": 151.2255302,
    "extracted_address": "High Street Kensington",
    "formatted_address": "High St, Kensington NSW 2033, Australia",
    "types": [
      "route"
    ],
    "source": "geocoded",
    "description": "High Street Kensington"
  },
  "4943904461": {
    "lat": 34.276795,
    "lng": 108.947241,
    "extracted_address": "Xi'an City Wall",
    "formatted_address": "Xincheng, Xi'An, China, 710003",
    "types": [
      "establishment",
      "point_of_interest",
      "tourist_attraction"
    ],
    "source": "geocoded",
    "description": "Xi'an City Wall"
  },
  "6127913719": {
    "lat": 34.1184341,
    "lng": -118.3003935,
    "extracted_address": "Griffith Observatory",
    "formatted_address": "2800 E Observatory Rd, Los Angeles, CA 90027, USA",
    "types": [
      "establishment",
      "museum",
      "point_of_interest",
      "tourist_attraction"
    ],
    "source": "geocoded",
    "description": "Griffith Observatory"
  },
  "251877645": {
    "lat": 45.5395694,
    "lng": -122.2443611,
    "extracted_address": "Vista House at Crown Point",
    "formatted_address": "40700 Historic Columbia River Hwy, Corbett, OR 97019, USA",
    "types": [
      "establishment",
      "landmark",
      "point_of_interest",
      "tourist_attraction"
    ],
    "source": "geocoded",
    "description": "Vista House at Crown Point"
  },
  "7754718074": {
    "lat": -23.46602,
    "lng": -46.58414,
    "extracted_address": "Pra\u00e7a Dr. Jo\u00e3o",
    "formatted_address": "Pra\u00e7a Dr. Jo\u00e3o Batista Vasques - Ponto Final da Linha 172r - Guapira, S\u00e3o Paulo - SP, 02274-090, Brazil",
    "types": [
      "establishment",
      "point_of_interest",
      "transit_station"
    ],
    "source": "geocoded",
    "description": "Pra\u00e7a Dr. Jo\u00e3o"
  },
  "2400817474": {
    "lat": 36.8790612,
    "lng": -111.5103627,
    "extracted_address": "Horseshoe Bend",
    "formatted_address": "Horseshoe Bend, Arizona 86040, USA",
    "types": [
      "establishment",
      "natural_feature"
    ],
    "source": "geocoded",
    "description": "Horseshoe Bend"
  },
  "6062877661": {
    "lat": 40.7479925,
    "lng": -74.0047649,
    "extracted_address": "The High Line",
    "formatted_address": "The High Line, New York, NY 10011, USA",
    "types": [
      "establishment",
      "park",
      "point_of_interest",
      "tourist_attraction"
    ],
    "source": "geocoded",
    "description": "The High Line"
  },
  "356472264": {
    "lat": 33.6503528,
    "lng": -111.8492271,
    "extracted_address": "McDowell Sonoran Preserve",
    "formatted_address": "McDowell Sonoran Preserve, Saguaro Loop Trail, Scottsdale, AZ 85255, USA",
    "types": [
      "establishment",
      "park",
      "point_of_interest"
    ],
    "source": "geocoded",
    "description": "McDowell Sonoran Preserve"
  },
  "2954529438": {
    "lat": 43.72322519999999,
    "lng": 10.3947238,
    "extracted_address": "Piazza dei Miracoli",
    "formatted_address": "Piazza del Duomo, 56126 Pisa PI, Italy",
    "types": [
      "establishment",
      "point_of_interest",
      "tourist_attraction"
    ],
    "source": "geocoded",
    "description": "Piazza dei Miracoli"
  },
  "400760123": {
    "lat": 41.016047,
    "lng": 28.9639711,
    "extracted_address": "S\u00fcleymaniye Mosque",
    "formatted_address": "S\u00fcleymaniye, Prof. S\u0131dd\u0131k Sami Onar Cd. No:1, 34116 Fatih/\u0130stanbul, T\u00fcrkiye",
    "types": [
      "establishment",
      "mosque",
      "place_of_worship",
      "point_of_interest",
      "tourist_attraction"
    ],
    "source": "geocoded",
    "description": "S\u00fcleymaniye Mosque"
  },
  "138991280": {
    "lat": 42.817394,
    "lng": -1.642077,
    "extracted_address": "Calle Estafeta",
    "formatted_address": "C. de la Estafeta, Pamplona, Navarra, Spain",
    "types": [
      "route"
    ],
    "source": "geocoded",
    "description": "Calle Estafeta"
  },
  "4935592901": {
    "lat": 34.6850912,
    "lng": 135.5230378,
    "extracted_address": "Otemon Gate",
    "formatted_address": "1-1 \u014csakaj\u014d, Chuo Ward, Osaka, 540-0002, Japan",
    "types": [
      "establishment",
      "point_of_interest",
      "tourist_attraction"
    ],
    "source": "geocoded",
    "description": "Otemon Gate"
  },
  "33337329": {
    "lat": 40.7308838,
    "lng": -73.997332,
    "extracted_address": "Washington Square Park",
    "formatted_address": "Washington Square Park, New York, NY 10012, USA",
    "types": [
      "establishment",
      "park",
      "point_of_interest",
      "tourist_attraction"
    ],
    "source": "geocoded",
    "description": "Washington Square Park"
  },
  "5799461563": {
    "lat": 49.0226563,
    "lng": 12.0972515,
    "extracted_address": "Steinerne Br\u00fccke",
    "formatted_address": "Steinerne Br\u00fccke, Steinerne Br\u00fccke, 93059 Regensburg, Germany",
    "types": [
      "establishment",
      "point_of_interest",
      "tourist_attraction"
    ],
    "source": "geocoded",
    "description": "Steinerne Br\u00fccke"
  },
  "129841428": {
    "lat": 39.9560314,
    "lng": -75.1818793,
    "extracted_address": "30th Street Station",
    "formatted_address": "William H. Gray III 30th Street, 2955 Market St, Philadelphia, PA 19104, USA",
    "types": [
      "establishment",
      "point_of_interest",
      "train_station",
      "transit_station"
    ],
    "source": "geocoded",
    "description": "30th Street Station"
  },
  "8097524059": {
    "lat": -13.003306,
    "lng": -38.5328688,
    "extracted_address": "Porto da Barra Beach",
    "formatted_address": "Porto da Barra Beach - Barra, Salvador - State of Bahia, Brazil",
    "types": [
      "establishment",
      "natural_feature"
    ],
    "source": "geocoded",
    "description": "Porto da Barra Beach"
  },
  "3571186935": {
    "lat": 23.512456,
    "lng": 113.226573,
    "extracted_address": "Temple of Heaven Park",
    "formatted_address": "G66G+XJP Temple of Heaven Park, Hua Du Qu, Guang Zhou Shi, Guang Dong Sheng, China, 510860",
    "types": [
      "establishment",
      "park",
      "point_of_interest"
    ],
    "source": "geocoded",
    "description": "Temple of Heaven Park"
  },
  "8455618": {
    "lat": 38.8892686,
    "lng": -77.050176,
    "extracted_address": "Lincoln Memorial",
    "formatted_address": "Lincoln Memorial, 2 Lincoln Memorial Cir NW, Washington, DC 20002, USA",
    "types": [
      "establishment",
      "park",
      "point_of_interest",
      "tourist_attraction"
    ],
    "source": "geocoded",
    "description": "Lincoln Memorial"
  },
  "32633215": {
    "lat": 39.79031459999999,
    "lng": -86.23366109999999,
    "extracted_address": "Indianapolis Motor Speedway",
    "formatted_address": "4790 W 16th St, Indianapolis, IN 46222, USA",
    "types": [
      "establishment",
      "point_of_interest",
      "tourist_attraction"
    ],
    "source": "geocoded",
    "description": "Indianapolis Motor Speedway"
  },
  "5271858025": {
    "lat": 39.4703038,
    "lng": -0.3763498,
    "extracted_address": "Plaza del Ayuntamiento",
    "formatted_address": "Sant Francesc, Ciutat Vella, 46002 Val\u00e8ncia, Spain",
    "types": [
      "establishment",
      "point_of_interest",
      "tourist_attraction"
    ],
    "source": "geocoded",
    "description": "Plaza del Ayuntamiento"
  },
  "7442103862": {
    "lat": 18.7885265,
    "lng": 98.9819946,
    "extracted_address": "Wat Phra Singh",
    "formatted_address": "2 Samlarn Rd, Tambon Si Phum, Amphoe Mueang Chiang Mai, Chang Wat Chiang Mai 50200, Thailand",
    "types": [
      "establishment",
      "place_of_worship",
      "point_of_interest"
    ],
    "source": "geocoded",
    "description": "Wat Phra Singh"
  },
  "5645366543": {
    "lat": -49.61403929999999,
    "lng": -72.091139,
    "extracted_address": "Lago Argentino",
    "formatted_address": "Lago Argentino Department, Santa Cruz Province, Argentina",
    "types": [
      "administrative_area_level_2",
      "political"
    ],
    "source": "geocoded",
    "description": "Lago Argentino"
  },
  "7932100896": {
    "lat": 54.696,
    "lng": 25.278,
    "extracted_address": "Europa Tower",
    "formatted_address": "Europos bok\u0161tas, 09307 Vilnius, Lithuania",
    "types": [
      "premise",
      "street_address"
    ],
    "source": "geocoded",
    "description": "Europa Tower"
  },
  "9880081374": {
    "lat": 43.567158,
    "lng": -70.23775959999999,
    "extracted_address": "Crescent Beach State Park",
    "formatted_address": "Crescent Beach State Park, 109 Bowery Beach Rd, Cape Elizabeth, ME 04107, USA",
    "types": [
      "establishment",
      "park",
      "point_of_interest",
      "tourist_attraction"
    ],
    "source": "geocoded",
    "description": "Crescent Beach State Park"
  },
  "6773483160": {
    "lat": 38.8875144,
    "lng": -77.0363934,
    "extracted_address": "National Mall",
    "formatted_address": "National Mall, Washington, DC, USA",
    "types": [
      "establishment",
      "park",
      "point_of_interest",
      "tourist_attraction"
    ],
    "source": "geocoded",
    "description": "National Mall"
  },
  "6961442808": {
    "lat": 37.778507,
    "lng": -122.5139808,
    "extracted_address": "Cliff House",
    "formatted_address": "1090 Point Lobos Ave, San Francisco, CA 94121, USA",
    "types": [
      "bar",
      "establishment",
      "food",
      "point_of_interest",
      "restaurant"
    ],
    "source": "geocoded",
    "description": "Cliff House"
  },
  "2314192017": {
    "lat": 51.529134,
    "lng": -0.06982569999999999,
    "extracted_address": "Columbia Road Flower Market",
    "formatted_address": "Columbia Rd, London E2 7RG, UK",
    "types": [
      "establishment",
      "florist",
      "point_of_interest",
      "store"
    ],
    "source": "geocoded",
    "description": "Columbia Road Flower Market"
  },
  "5086239896": {
    "lat": 41.8769806,
    "lng": -87.62393159999999,
    "extracted_address": "Paris M\u00e9tro station",
    "formatted_address": "Chicago Pedway System, Chicago, IL 60604, USA",
    "types": [
      "establishment",
      "point_of_interest"
    ],
    "source": "geocoded",
    "description": "Paris M\u00e9tro station"
  },
  "193907931": {
    "lat": 38.8875144,
    "lng": -77.0363934,
    "extracted_address": "National Mall",
    "formatted_address": "National Mall, Washington, DC, USA",
    "types": [
      "establishment",
      "park",
      "point_of_interest",
      "tourist_attraction"
    ],
    "source": "geocoded",
    "description": "National Mall"
  },
  "3067729276": {
    "lat": 47.6050242,
    "lng": -122.3343709,
    "extracted_address": "1. Guess a country: United States  \n2. Guess a city: Seattle  \n3. Guess a specific location or coordinate: The image is taken near the Downtown Seattle bus stop at 5th Avenue and Pine Street, close to the Nordstrom flagship store, around coordinates 47.6101\u00b0 N, 122.3365\u00b0 W.",
    "formatted_address": "Downtown Seattle, Seattle, WA, USA",
    "types": [
      "neighborhood",
      "political"
    ],
    "source": "geocoded",
    "description": "Nordstrom flagship store"
  },
  "3754912645": {
    "lat": 19.4259699,
    "lng": -99.193699,
    "extracted_address": "Paseo de la Reforma",
    "formatted_address": "Av. P.\u00ba de la Reforma, Ciudad de M\u00e9xico, CDMX, Mexico",
    "types": [
      "route"
    ],
    "source": "geocoded",
    "description": "Paseo de la Reforma"
  },
  "2425196729": {
    "lat": 60.29272890000001,
    "lng": 24.5565109,
    "extracted_address": "Nuuksio National Park",
    "formatted_address": "Nuuksio National Park, Nuuksiontie 84, 02820 Espoo, Finland",
    "types": [
      "establishment",
      "park",
      "point_of_interest",
      "tourist_attraction"
    ],
    "source": "geocoded",
    "description": "Nuuksio National Park"
  },
  "4595464362": {
    "lat": 30.2476846,
    "lng": -97.7181049,
    "extracted_address": "Lady Bird Lake",
    "formatted_address": "Lady Bird Lake, Austin, TX, USA",
    "types": [
      "establishment",
      "natural_feature"
    ],
    "source": "geocoded",
    "description": "Lady Bird Lake"
  },
  "9674782856": {
    "lat": 38.8966749,
    "lng": -104.845821,
    "extracted_address": "Garden of the Gods Road",
    "formatted_address": "Garden of the Gods Rd, Colorado Springs, CO, USA",
    "types": [
      "route"
    ],
    "source": "geocoded",
    "description": "Garden of the Gods Road"
  },
  "2232591644": {
    "lat": 30.2669764,
    "lng": -97.7729703,
    "extracted_address": "Zilker Metropolitan Park",
    "formatted_address": "Zilker Metropolitan Park, Austin, TX 78746, USA",
    "types": [
      "establishment",
      "park",
      "point_of_interest",
      "tourist_attraction"
    ],
    "source": "geocoded",
    "description": "Zilker Metropolitan Park"
  },
  "162863290": {
    "lat": 48.8612327,
    "lng": 2.3581892,
    "extracted_address": "Marais",
    "formatted_address": "Le Marais, Paris, France",
    "types": [
      "neighborhood",
      "political"
    ],
    "source": "geocoded",
    "description": "Marais"
  },
  "9672684353": {
    "lat": 47.60269770000001,
    "lng": -122.3385197,
    "extracted_address": "Seattle Ferry Terminal",
    "formatted_address": "Seattle, 801 Alaskan Wy, Seattle, WA 98104, USA",
    "types": [
      "establishment",
      "point_of_interest",
      "transit_station"
    ],
    "source": "geocoded",
    "description": "Seattle Ferry Terminal"
  },
  "1289357310": {
    "lat": 19.4194815,
    "lng": -99.18945579999999,
    "extracted_address": "Chapultepec Park",
    "formatted_address": "Bosque de Chapultepec, Miguel Hidalgo, Ciudad de M\u00e9xico, CDMX, Mexico",
    "types": [
      "establishment",
      "park",
      "point_of_interest",
      "tourist_attraction"
    ],
    "source": "geocoded",
    "description": "Chapultepec Park"
  },
  "1087662996": {
    "lat": 39.925373,
    "lng": -75.1054224,
    "extracted_address": "Temple II",
    "formatted_address": "1580 Mt Ephraim Ave, Camden, NJ 08104, USA",
    "types": [
      "establishment",
      "food",
      "meal_delivery",
      "point_of_interest",
      "restaurant"
    ],
    "source": "geocoded",
    "description": "Temple II"
  },
  "13349689403": {
    "lat": 35.0491384,
    "lng": 136.8509152,
    "extracted_address": "SCMaglev and Railway Park",
    "formatted_address": "3-ch\u014dme-2-2 Kinj\u014dfut\u014d, Minato Ward, Nagoya, Aichi 455-0848, Japan",
    "types": [
      "establishment",
      "museum",
      "point_of_interest",
      "tourist_attraction"
    ],
    "source": "geocoded",
    "description": "SCMaglev and Railway Park"
  },
  "280128811": {
    "lat": 42.6636581,
    "lng": 18.0655651,
    "extracted_address": "Copacabana Beach",
    "formatted_address": "Ul. Ivana pl. Zajca, 20000, Dubrovnik, Croatia",
    "types": [
      "establishment",
      "point_of_interest"
    ],
    "source": "geocoded",
    "description": "Copacabana Beach"
  },
  "3194135654": {
    "lat": -23.4050207,
    "lng": -46.5674151,
    "extracted_address": "Parque Estadual da Cantareira",
    "formatted_address": "Parque Estadual da Cantareira - Tres Cruzes, S\u00e3o Paulo - SP, Brazil",
    "types": [
      "establishment",
      "natural_feature"
    ],
    "source": "geocoded",
    "description": "Parque Estadual da Cantareira"
  },
  "4982589142": {
    "lat": -33.892162,
    "lng": 151.2321807,
    "extracted_address": "Centennial Park",
    "formatted_address": "Centennial Park NSW 2021, Australia",
    "types": [
      "locality",
      "political"
    ],
    "source": "geocoded",
    "description": "Centennial Park"
  },
  "2901075604": {
    "lat": 36.9632075,
    "lng": -122.0215287,
    "extracted_address": "Santa Cruz Main Beach",
    "formatted_address": "400 Beach St, Santa Cruz, CA 95060, USA",
    "types": [
      "establishment",
      "point_of_interest"
    ],
    "source": "geocoded",
    "description": "Santa Cruz Main Beach"
  },
  "2280991185": {
    "lat": 40.7579747,
    "lng": -73.9855426,
    "extracted_address": "Times Square",
    "formatted_address": "Manhattan, NY 10036, USA",
    "types": [
      "establishment",
      "point_of_interest",
      "tourist_attraction"
    ],
    "source": "geocoded",
    "description": "Times Square"
  },
  "8216324990": {
    "lat": 1.4464304,
    "lng": 103.723404,
    "extracted_address": "Sungei Buloh Wetland Reserve",
    "formatted_address": "301 Neo Tiew Cres, Sungei Buloh Wetland Reserve, Singapore 718925",
    "types": [
      "establishment",
      "park",
      "point_of_interest",
      "tourist_attraction"
    ],
    "source": "geocoded",
    "description": "Sungei Buloh Wetland Reserve"
  },