{
  "97344146": {
    "lat": 41.4036299,
    "lng": 2.1743558,
    "extracted_address": "La Sagrada Fam\u00edlia",
    "formatted_address": "Carrer de Mallorca, 401, L'Eixample, 08013 Barcelona, Spain",
    "types": [
      "church",
      "establishment",
      "place_of_worship",
      "point_of_interest",
      "tourist_attraction"
    ],
    "source": "geocoded",
    "description": "La Sagrada Fam\u00edlia"
  },
  "3031378811": {
    "lat": 20.9994687,
    "lng": -156.6640055,
    "extracted_address": "Kapalua",
    "formatted_address": "Kapalua, HI 96761, USA",
    "types": [
      "locality",
      "political"
    ],
    "source": "geocoded",
    "description": "Kapalua"
  },
  "182341219": {
    "lat": 52.5047297,
    "lng": 13.3352316,
    "extracted_address": "Breitscheidplatz",
    "formatted_address": "Breitscheidplatz, 10 Berlin, Germany",
    "types": [
      "town_square"
    ],
    "source": "geocoded",
    "description": "Breitscheidplatz"
  },
  "1461522249": {
    "lat": 34.0458857,
    "lng": -118.5648608,
    "extracted_address": "The Getty Villa",
    "formatted_address": "17985 Pacific Coast Hwy, Pacific Palisades, CA 90272, USA",
    "types": [
      "establishment",
      "museum",
      "point_of_interest",
      "tourist_attraction"
    ],
    "source": "geocoded",
    "description": "The Getty Villa"
  },
  "266092150": {
    "lat": 49.815273,
    "lng": 6.129582999999999,
    "extracted_address": "Porsche Centre Luxembourg",
    "formatted_address": "Luxembourg",
    "types": [
      "country",
      "political"
    ],
    "source": "geocoded",
    "description": "Porsche Centre Luxembourg"
  },
  "976532479": {
    "lat": 51.5034599,
    "lng": -0.2241906,
    "extracted_address": "O2 Shepherd\u2019s Bush Empire",
    "formatted_address": "211 Shepherd's Bush Grn, London W12 8TT, UK",
    "types": [
      "establishment",
      "point_of_interest"
    ],
    "source": "geocoded",
    "description": "O2 Shepherd\u2019s Bush Empire"
  },
  "4811750972": {
    "lat": 31.339499,
    "lng": 121.221638,
    "extracted_address": "Shanghai International Circuit",
    "formatted_address": "China, Shang Hai Shi, Jia Ding Qu, \u4f0a\u5b81\u8def2000\u53f7 \u90ae\u653f\u7f16\u7801: 201800",
    "types": [
      "establishment",
      "point_of_interest"
    ],
    "source": "geocoded",
    "description": "Shanghai International Circuit"
  },
  "1973617618": {
    "lat": 53.95582,
    "lng": -1.07994,
    "extracted_address": "Clifford\u2019s Tower",
    "formatted_address": "Tower St, York YO1 9SA, UK",
    "types": [
      "establishment",
      "point_of_interest",
      "tourist_attraction"
    ],
    "source": "geocoded",
    "description": "Clifford\u2019s Tower"
  },
  "11175831776": {
    "lat": 50.4503596,
    "lng": 30.5245025,
    "extracted_address": "Kyiv City Hall",
    "formatted_address": "Kyiv, Ukraine, 02000",
    "types": [
      "locality",
      "political"
    ],
    "source": "geocoded",
    "description": "Kyiv City Hall"
  },
  "8307089134": {
    "lat": 43.771273,
    "lng": 11.2517612,
    "extracted_address": "Palazzo Strozzi",
    "formatted_address": "Piazza degli Strozzi, 50123 Firenze FI, Italy",
    "types": [
      "establishment",
      "museum",
      "point_of_interest",
      "tourist_attraction"
    ],
    "source": "geocoded",
    "description": "Palazzo Strozzi"
  },
  "523184139": {
    "lat": 48.8849216,
    "lng": 2.3426033,
    "extracted_address": "Montmartre Funicular",
    "formatted_address": "Funiculaire de Montmartre, 75018 Paris, France",
    "types": [
      "route"
    ],
    "source": "geocoded",
    "description": "Montmartre Funicular"
  },
  "3227947036": {
    "lat": 18.9246218,
    "lng": 72.8321529,
    "extracted_address": "Colaba Causeway",
    "formatted_address": "Colaba Causeway, Mumbai, Maharashtra, India",
    "types": [
      "route"
    ],
    "source": "geocoded",
    "description": "Colaba Causeway"
  },
  "5839161640": {
    "lat": 42.1089429,
    "lng": -72.0992342,
    "extracted_address": "Old Sturbridge Village",
    "formatted_address": "1 Old Sturbridge Village Rd, Sturbridge, MA 01566, USA",
    "types": [
      "establishment",
      "museum",
      "point_of_interest",
      "tourist_attraction"
    ],
    "source": "geocoded",
    "description": "Old Sturbridge Village"
  },
  "178966363": {
    "lat": 52.3741709,
    "lng": 4.912325,
    "extracted_address": "NEMO Science Museum",
    "formatted_address": "Oosterdok 2, 1011 VX Amsterdam, Netherlands",
    "types": [
      "establishment",
      "museum",
      "point_of_interest",
      "tourist_attraction"
    ],
    "source": "geocoded",
    "description": "NEMO Science Museum"
  },
  "8306613715": {
    "lat": 40.6558508,
    "lng": -73.9624774,
    "extracted_address": "Drummers\u2019 Grove",
    "formatted_address": "Drummer's Grove, Prospect Park, Brooklyn, NY 11225, USA",
    "types": [
      "establishment",
      "park",
      "point_of_interest",
      "tourist_attraction"
    ],
    "source": "geocoded",
    "description": "Drummers\u2019 Grove"
  },
  "3993491561": {
    "lat": 43.56584549999999,
    "lng": -89.81832229999999,
    "extracted_address": "Mirror Lake",
    "formatted_address": "Mirror Lake State Park, E10320 Fern Dell Rd, Baraboo, WI 53913, USA",
    "types": [
      "establishment",
      "park",
      "point_of_interest",
      "tourist_attraction"
    ],
    "source": "geocoded",
    "description": "Mirror Lake"
  },
  "1139613029": {
    "lat": 59.33235649999999,
    "lng": 18.0645449,
    "extracted_address": "Sergels torg",
    "formatted_address": "111 57 Stockholm, Sweden",
    "types": [
      "establishment",
      "point_of_interest",
      "tourist_attraction"
    ],
    "source": "geocoded",
    "description": "Sergels torg"
  },
  "6295982812": {
    "lat": 37.779723,
    "lng": -122.5115887,
    "extracted_address": "Lands End, San Francisco, California, USA.",
    "formatted_address": "Lands End Lookout, 680 Point Lobos Ave, San Francisco, CA 94121, USA",
    "types": [
      "establishment",
      "park",
      "point_of_interest",
      "store",
      "tourist_attraction",
      "travel_agency"
    ],
    "source": "geocoded",
    "description": "Lands End"
  },
  "3007603560": {
    "lat": 37.7635614,
    "lng": -122.4173724,
    "extracted_address": "Mission District",
    "formatted_address": "Mission District, San Francisco, CA, USA",
    "types": [
      "neighborhood",
      "political"
    ],
    "source": "geocoded",
    "description": "Mission District"
  },
  "379604236": {
    "lat": 43.3238369,
    "lng": -1.9866066,
    "extracted_address": "Basilica of Saint Mary of the Chorus",
    "formatted_address": "31 de Agosto Kalea, 46, 20003 Donostia, Gipuzkoa, Spain",
    "types": [
      "church",
      "establishment",
      "place_of_worship",
      "point_of_interest",
      "tourist_attraction"
    ],
    "source": "geocoded",
    "description": "Basilica of Saint Mary of the Chorus"
  },
  "6292826": {
    "lat": 51.91345,
    "lng": 4.4988082,
    "extracted_address": "De Hef",
    "formatted_address": "Koningshavenbrug De Hef, De Hef, 3071 NB Rotterdam, Netherlands",
    "types": [
      "establishment",
      "point_of_interest",
      "tourist_attraction"
    ],
    "source": "geocoded",
    "description": "De Hef"
  },
  "1799241727": {
    "lat": 51.49671499999999,
    "lng": -0.1763672,
    "extracted_address": "Natural History Museum",
    "formatted_address": "Cromwell Rd, South Kensington, London SW7 5BD, UK",
    "types": [
      "establishment",
      "library",
      "museum",
      "point_of_interest",
      "tourist_attraction"
    ],
    "source": "geocoded",
    "description": "Natural History Museum"
  },
  "219433381": {
    "lat": 37.3861784,
    "lng": -5.992613700000001,
    "extracted_address": "La Giralda",
    "formatted_address": "Av. de la Constituci\u00f3n, s/n, Casco Antiguo, 41004 Sevilla, Spain",
    "types": [
      "establishment",
      "point_of_interest",
      "tourist_attraction"
    ],
    "source": "geocoded",
    "description": "La Giralda"
  },
  "456712325": {
    "lat": 1.3116238,
    "lng": 103.814859,
    "extracted_address": "National Orchid Garden",
    "formatted_address": "1 Cluny Rd, National Orchid Garden, Singapore 259569",
    "types": [
      "establishment",
      "park",
      "point_of_interest"
    ],
    "source": "geocoded",
    "description": "National Orchid Garden"
  },
  "4341776736": {
    "lat": 47.6088168,
    "lng": -122.3400217,
    "extracted_address": "Downtown Seattle, Washington \u2014 by the Hard Rock Cafe on Pike Street near Pike Place Market.",
    "formatted_address": "Pike St, Seattle, WA 98101, USA",
    "types": [
      "route"
    ],
    "source": "geocoded",
    "description": "Hard Rock Cafe"
  },
  "511802589": {
    "lat": 40.752614,
    "lng": -73.419844,
    "extracted_address": "Adventureland",
    "formatted_address": "2245 Broadhollow Rd, Farmingdale, NY 11735, USA",
    "types": [
      "amusement_park",
      "establishment",
      "point_of_interest",
      "tourist_attraction"
    ],
    "source": "geocoded",
    "description": "Adventureland"
  },
  "2767333569": {
    "lat": 37.7951195,
    "lng": -122.3952007,
    "extracted_address": "Justin Herman Plaza",
    "formatted_address": "Embarcadero Plaza, Market St &, Steuart St, San Francisco, CA 94105, USA",
    "types": [
      "establishment",
      "park",
      "point_of_interest"
    ],
    "source": "geocoded",
    "description": "Justin Herman Plaza"
  },
  "311141742": {
    "lat": 37.579617,
    "lng": 126.977041,
    "extracted_address": "Gyeongbokgung Palace",
    "formatted_address": "161 Sajik-ro, Jongno District, Seoul, South Korea",
    "types": [
      "establishment",
      "point_of_interest",
      "tourist_attraction"
    ],
    "source": "geocoded",
    "description": "Gyeongbokgung Palace"
  },
  "8315509448": {
    "lat": 34.4249209,
    "lng": -118.5958464,
    "extracted_address": "Six Flags Magic Mountain",
    "formatted_address": "26101 Magic Mountain Pkwy, Valencia, CA 91355, USA",
    "types": [
      "amusement_park",
      "establishment",
      "point_of_interest",
      "tourist_attraction"
    ],
    "source": "geocoded",
    "description": "Six Flags Magic Mountain"
  },
  "523909268": {
    "lat": 48.8466144,
    "lng": 2.3363309,
    "extracted_address": "Jardin du Luxembourg",
    "formatted_address": "Jardin du Luxembourg, 75006 Paris, France",
    "types": [
      "establishment",
      "park",
      "point_of_interest",
      "tourist_attraction"
    ],
    "source": "geocoded",
    "description": "Jardin du Luxembourg"
  },
  "8406771903": {
    "lat": 38.8944395,
    "lng": -77.01989929999999,
    "extracted_address": "Indiana Ave NW at 6th St NW",
    "formatted_address": "Indiana Ave NW & 6th St NW, Washington, DC 20001, USA",
    "types": [
      "intersection"
    ],
    "source": "geocoded",
    "description": "Indiana Ave NW at 6th St NW"
  },
  "2088763517": {
    "lat": 24.7855775,
    "lng": 120.9910995,
    "extracted_address": "National Tsing Hua University",
    "formatted_address": "No. 101\u865f, Section 2, Guangfu Rd, East District, Hsinchu City, Taiwan 300",
    "types": [
      "establishment",
      "point_of_interest",
      "university"
    ],
    "source": "geocoded",
    "description": "National Tsing Hua University"
  },
  "443568113": {
    "lat": 34.6889851,
    "lng": 135.8398158,
    "extracted_address": "T\u014ddai-ji Temple",
    "formatted_address": "406-1 Z\u014dshich\u014d, Nara, 630-8587, Japan",
    "types": [
      "establishment",
      "place_of_worship",
      "point_of_interest",
      "tourist_attraction"
    ],
    "source": "geocoded",
    "description": "T\u014ddai-ji Temple"
  },
  "2153205662": {
    "lat": 38.89593929999999,
    "lng": -77.04009350000001,
    "extracted_address": "Corcoran Gallery of Art",
    "formatted_address": "500 17th St NW, Washington, DC 20006, USA",
    "types": [
      "art_gallery",
      "establishment",
      "point_of_interest",
      "university"
    ],
    "source": "geocoded",
    "description": "Corcoran Gallery of Art"
  },
  "6279251255": {
    "lat": 40.7794366,
    "lng": -73.963244,
    "extracted_address": "The Metropolitan Museum of Art",
    "formatted_address": "1000 5th Ave, New York, NY 10028, USA",
    "types": [
      "establishment",
      "museum",
      "point_of_interest",
      "tourist_attraction"
    ],
    "source": "geocoded",
    "description": "The Metropolitan Museum of Art"
  },
  "13363473424": {
    "lat": 53.8113646,
    "lng": -1.5605584,
    "extracted_address": "Woodhouse Moor",
    "formatted_address": "Woodhouse Moor, Woodhouse Ln, Woodhouse, Leeds LS6 1SJ, UK",
    "types": [
      "establishment",
      "park",
      "point_of_interest",
      "tourist_attraction"
    ],
    "source": "geocoded",
    "description": "Woodhouse Moor"
  },
  "6817087374": {
    "lat": 30.3201479,
    "lng": -81.6564993,
    "extracted_address": "South Bank riverwalk",
    "formatted_address": "Southbank Riverwalk, 1001 Museum Cir, Jacksonville, FL 32207, USA",
    "types": [
      "establishment",
      "park",
      "point_of_interest",
      "tourist_attraction"
    ],
    "source": "geocoded",
    "description": "South Bank riverwalk"
  },
  "8251381751": {
    "lat": 41.00838400000001,
    "lng": 28.977878,
    "extracted_address": "Basilica Cistern",
    "formatted_address": "Alemdar, Yerebatan Cd. 1/3, 34110 Fatih/\u0130stanbul, T\u00fcrkiye",
    "types": [
      "establishment",
      "museum",
      "point_of_interest",
      "tourist_attraction"
    ],
    "source": "geocoded",
    "description": "Basilica Cistern"
  },
  "5765699878": {
    "lat": 40.6525726,
    "lng": -73.9916336,
    "extracted_address": "Green-Wood Cemetery",
    "formatted_address": "25th St, Brooklyn, NY 11232, USA",
    "types": [
      "cemetery",
      "establishment",
      "point_of_interest",
      "tourist_attraction"
    ],
    "source": "geocoded",
    "description": "Green-Wood Cemetery"
  },
  "329033253": {
    "lat": 45.6514817,
    "lng": 13.7733333,
    "extracted_address": "Serbian Orthodox Church of Saint Spyridon",
    "formatted_address": "Via S. Spiridione, 9, 34122 Trieste TS, Italy",
    "types": [
      "church",
      "establishment",
      "place_of_worship",
      "point_of_interest",
      "tourist_attraction"
    ],
    "source": "geocoded",
    "description": "Serbian Orthodox Church of Saint Spyridon"
  },
  "12714152683": {
    "lat": 36.7580878,
    "lng": 139.5987466,
    "extracted_address": "Nikk\u014d T\u014dsh\u014dg\u016b Shrine",
    "formatted_address": "2301 Sannai, Nikko, Tochigi 321-1431, Japan",
    "types": [
      "establishment",
      "place_of_worship",
      "point_of_interest",
      "tourist_attraction"
    ],
    "source": "geocoded",
    "description": "Nikk\u014d T\u014dsh\u014dg\u016b Shrine"
  },
  "480372482": {
    "lat": 45.4658434,
    "lng": 9.1899401,
    "extracted_address": "Galleria Vittorio Emanuele II",
    "formatted_address": "20123 Milan, Metropolitan City of Milan, Italy",
    "types": [
      "establishment",
      "point_of_interest",
      "shopping_mall",
      "tourist_attraction"
    ],
    "source": "geocoded",
    "description": "Galleria Vittorio Emanuele II"
  },
  "175835676": {
    "lat": 52.3084985,
    "lng": 4.762389800000001,
    "extracted_address": "I amsterdam sign",
    "formatted_address": "Evert van de Beekstraat 202, 1118 AX Schiphol, Netherlands",
    "types": [
      "establishment",
      "point_of_interest",
      "tourist_attraction"
    ],
    "source": "geocoded",
    "description": "I amsterdam sign"
  },
  "13461766705": {
    "lat": -43.49105,
    "lng": 147.1422945,
    "extracted_address": "Cape Bruny Lighthouse",
    "formatted_address": "Cape Bruny Lighthouse Tours, 1750 Lighthouse Rd, South Bruny TAS 7150, Australia",
    "types": [
      "establishment",
      "museum",
      "park",
      "point_of_interest",
      "tourist_attraction",
      "travel_agency"
    ],
    "source": "geocoded",
    "description": "Cape Bruny Lighthouse"
  },
  "5402766188": {
    "lat": 31.9685988,
    "lng": -99.9018131,
    "extracted_address": "Texas & Pacific (T&P) Terminal",
    "formatted_address": "Texas, USA",
    "types": [
      "administrative_area_level_1",
      "political"
    ],
    "source": "geocoded",
    "description": "Texas & Pacific (T&P) Terminal"
  },
  "7276598480": {
    "lat": 42.576358,
    "lng": -71.6050028,
    "extracted_address": "Likely at an autocross event on an old airfield \u2014 this looks like the SCCA site at Devens (Moore Army Airfield) in Ayer/Devens, Massachusetts.",
    "formatted_address": "Ayer, MA 01432, USA",
    "types": [
      "establishment",
      "point_of_interest"
    ],
    "source": "geocoded",
    "description": "Moore Army Airfield"
  },
  "369711791": {
    "lat": 42.880688,
    "lng": -8.544395399999999,
    "extracted_address": "Santiago de Compostela Cathedral",
    "formatted_address": "Praza do Obradoiro, s/n, 15704 Santiago de Compostela, A Coru\u00f1a, Spain",
    "types": [
      "church",
      "establishment",
      "place_of_worship",
      "point_of_interest"
    ],
    "source": "geocoded",
    "description": "Santiago de Compostela Cathedral"
  },
  "285969802": {
    "lat": 40.6992753,
    "lng": -74.0394328,
    "extracted_address": "Ellis Island Immigration Museum",
    "formatted_address": "Ellis Is, Jersey City, NJ 07305, USA",
    "types": [
      "establishment",
      "museum",
      "point_of_interest"
    ],
    "source": "geocoded",
    "description": "Ellis Island Immigration Museum"
  },
  "9001135290": {
    "lat": 38.7328166,
    "lng": -109.5746222,
    "extracted_address": "Arches National Park",
    "formatted_address": "Arches National Park, Utah, USA",
    "types": [
      "establishment",
      "park",
      "point_of_interest",
      "tourist_attraction"
    ],
    "source": "geocoded",
    "description": "Arches National Park"
  },
  "7488269670": {
    "lat": 42.88227759999999,
    "lng": -8.543758,
    "extracted_address": "San Marti\u00f1o Pinario Monastery",
    "formatted_address": "Pl. de San Marti\u00f1o, S/N, 15704 Santiago de Compostela, La Coru\u00f1a, Spain",
    "types": [
      "establishment",
      "museum",
      "place_of_worship",
      "point_of_interest",
      "tourist_attraction"
    ],
    "source": "geocoded",
    "description": "San Marti\u00f1o Pinario Monastery"
  },
  "1301398204": {
    "lat": 48.8606111,
    "lng": 2.337644,
    "extracted_address": "The Louvre Museum",
    "formatted_address": "75001 Paris, France",
    "types": [
      "establishment",
      "museum",
      "point_of_interest",
      "tourist_attraction"
    ],
    "source": "geocoded",
    "description": "The Louvre Museum"
  },
  "5862873516": {
    "lat": 41.3846412,
    "lng": 2.1716466,
    "extracted_address": "Ateneu Barcelon\u00e8s",
    "formatted_address": "Carrer de la Canuda, 6, Ciutat Vella, 08002 Barcelona, Spain",
    "types": [
      "establishment",
      "point_of_interest",
      "tourist_attraction"
    ],
    "source": "geocoded",
    "description": "Ateneu Barcelon\u00e8s"
  },
  "3511424366": {
    "lat": 57.59081,
    "lng": -5.57283,
    "extracted_address": "Beinn Alligin",
    "formatted_address": "Beinn Alligin, Achnasheen IV22 2HB, UK",
    "types": [
      "establishment",
      "natural_feature"
    ],
    "source": "geocoded",
    "description": "Beinn Alligin"
  },
  "7281876710": {
    "lat": 48.8560114,
    "lng": 2.3454953,
    "extracted_address": "Conciergerie",
    "formatted_address": "2 Bd du Palais, 75001 Paris, France",
    "types": [
      "establishment",
      "museum",
      "point_of_interest",
      "tourist_attraction"
    ],
    "source": "geocoded",
    "description": "Conciergerie"
  },
  "6779799981": {
    "lat": 1.2892988,
    "lng": 103.8631368,
    "extracted_address": "Singapore Flyer",
    "formatted_address": "30 Raffles Ave., Singapore 039803",
    "types": [
      "establishment",
      "point_of_interest",
      "tourist_attraction"
    ],
    "source": "geocoded",
    "description": "Singapore Flyer"
  },
  "5908041850": {
    "lat": 41.3870154,
    "lng": 2.1700471,
    "extracted_address": "Pla\u00e7a de Catalunya",
    "formatted_address": "Pla\u00e7a de Catalunya, L'Eixample, 08002 Barcelona, Spain",
    "types": [
      "establishment",
      "point_of_interest",
      "tourist_attraction"
    ],
    "source": "geocoded",
    "description": "Pla\u00e7a de Catalunya"
  },
  "486640035": {
    "lat": 37.3860469,
    "lng": -5.9920444,
    "extracted_address": "Plaza Virgen de los Reyes",
    "formatted_address": "Pl. Virgen de los Reyes, Casco Antiguo, 41004 Sevilla, Spain",
    "types": [
      "route"
    ],
    "source": "geocoded",
    "description": "Plaza Virgen de los Reyes"
  },
  "5764250917": {
    "lat": 35.7147651,
    "lng": 139.7966553,
    "extracted_address": "Senso-ji Temple",
    "formatted_address": "2-ch\u014dme-3-1 Asakusa, Taito City, Tokyo 111-0032, Japan",
    "types": [
      "establishment",
      "place_of_worship",
      "point_of_interest",
      "tourist_attraction"
    ],
    "source": "geocoded",
    "description": "Senso-ji Temple"
  },
  "1386768513": {
    "lat": 48.853069,
    "lng": 2.3390941,
    "extracted_address": "Cour du Commerce Saint\u2011Andr\u00e9",
    "formatted_address": "Cr du Commerce Saint-Andr\u00e9, 75006 Paris, France",
    "types": [
      "route"
    ],
    "source": "geocoded",
    "description": "Cour du Commerce Saint\u2011Andr\u00e9"
  },
  "5314749745": {
    "lat": 40.7579747,
    "lng": -73.9855426,
    "extracted_address": "Times Square",
    "formatted_address": "Manhattan, NY 10036, USA",
    "types": [
      "establishment",
      "point_of_interest",
      "tourist_attraction"
    ],
    "source": "geocoded",
    "description": "Times Square"
  },
  "563945657": {
    "lat": 1.2947425,
    "lng": 103.8589026,
    "extracted_address": "Fountain of Wealth",
    "formatted_address": "3 Temasek Blvd, Fountain of Wealth, Singapore 038983",
    "types": [
      "establishment",
      "park",
      "point_of_interest",
      "tourist_attraction"
    ],
    "source": "geocoded",
    "description": "Fountain of Wealth"
  },
  "5136072764": {
    "lat": 32.0804846,
    "lng": 34.7806198,
    "extracted_address": "Rabin Square",
    "formatted_address": "Rabin Square, Tel Aviv-Yafo, Israel",
    "types": [
      "establishment",
      "park",
      "point_of_interest"
    ],
    "source": "geocoded",
    "description": "Rabin Square"
  },
  "218049846": {
    "lat": 47.6094076,
    "lng": -122.3418358,
    "extracted_address": "Pike Place Market",
    "formatted_address": "85 Pike St, Seattle, WA 98101, USA",
    "types": [
      "establishment",
      "food",
      "grocery_or_supermarket",
      "point_of_interest",
      "restaurant",
      "store",
      "tourist_attraction"
    ],
    "source": "geocoded",
    "description": "Pike Place Market"
  },
  "2927129825": {
    "lat": 49.3592091,
    "lng": -0.8554058999999999,
    "extracted_address": "Normandy American Cemetery and Memorial",
    "formatted_address": "Normandy American Cemetery, Rte du Cimetiere Americain, 14710 Colleville-sur-Mer, France",
    "types": [
      "cemetery",
      "church",
      "establishment",
      "park",
      "place_of_worship",
      "point_of_interest",
      "tourist_attraction"
    ],
    "source": "geocoded",
    "description": "Normandy American Cemetery and Memorial"
  },
  "1386606787": {
    "lat": -33.9065612,
    "lng": 18.419714,
    "extracted_address": "Nobel Square",
    "formatted_address": "Watershed, 17 Dock Rd, Victoria & Alfred Waterfront, Cape Town, 8002, South Africa",
    "types": [
      "establishment",
      "point_of_interest",
      "tourist_attraction"
    ],
    "source": "geocoded",
    "description": "Nobel Square"
  },
  "4916969136": {
    "lat": 44.0806915,
    "lng": -103.2280663,
    "extracted_address": "Art Alley",
    "formatted_address": "599 7th St, Rapid City, SD 57701, USA",
    "types": [
      "art_gallery",
      "establishment",
      "point_of_interest",
      "tourist_attraction"
    ],
    "source": "geocoded",
    "description": "Art Alley"
  },
  "452289167": {
    "lat": 30.74480789999999,
    "lng": 79.4912552,
    "extracted_address": "Badrinath Temple",
    "formatted_address": "Badri to Mata Murti road, Badrinath, Uttarakhand 246422, India",
    "types": [
      "establishment",
      "hindu_temple",
      "place_of_worship",
      "point_of_interest",
      "tourist_attraction"
    ],
    "source": "geocoded",
    "description": "Badrinath Temple"
  },
  "5348320913": {
    "lat": -33.8567844,
    "lng": 151.2152967,
    "extracted_address": "Sydney Opera House",
    "formatted_address": "Bennelong Point, Sydney NSW 2000, Australia",
    "types": [
      "establishment",
      "point_of_interest",
      "tourist_attraction"
    ],
    "source": "geocoded",
    "description": "Sydney Opera House"
  },
  "8706699810": {
    "lat": 41.4233906,
    "lng": -74.0622764,
    "extracted_address": "Storm King Art Center",
    "formatted_address": "1 Museum Rd, New Windsor, NY 12553, USA",
    "types": [
      "establishment",
      "museum",
      "point_of_interest"
    ],
    "source": "geocoded",
    "description": "Storm King Art Center"
  },
  "390524954": {
    "lat": 60.1676653,
    "lng": 24.9536778,
    "extracted_address": "Market Square (Kauppatori",
    "formatted_address": "Etel\u00e4ranta, 00170 Helsinki, Finland",
    "types": [
      "cafe",
      "establishment",
      "food",
      "point_of_interest",
      "restaurant",
      "tourist_attraction"
    ],
    "source": "geocoded",
    "description": "Market Square (Kauppatori"
  },
  "822984583": {
    "lat": 51.159081,
    "lng": -2.583461,
    "extracted_address": "Worthy Farm",
    "formatted_address": "Worthy Farm, Worthy Ln, Pilton, Shepton Mallet BA4 4BY, UK",
    "types": [
      "premise",
      "street_address"
    ],
    "source": "geocoded",
    "description": "Worthy Farm"
  },
  "458444286": {
    "lat": 36.204824,
    "lng": 138.252924,
    "extracted_address": "At the entrance of a Shinto shrine in Japan.",
    "formatted_address": "Japan",
    "types": [
      "country",
      "political"
    ],
    "source": "geocoded",
    "description": "Shinto shrine"
  },
  "756531584": {
    "lat": 37.7463042,
    "lng": -119.5309256,
    "extracted_address": "Half Dome cables route",
    "formatted_address": "Half Dome Cables, Half Dome Trl, TUOLUMNE MEADOWS, CA 95389, USA",
    "types": [
      "establishment",
      "park",
      "point_of_interest"
    ],
    "source": "geocoded",
    "description": "Half Dome cables route"
  },
  "358066578": {
    "lat": 43.6525198,
    "lng": -79.38171559999999,
    "extracted_address": "Old City Hall",
    "formatted_address": "60 Queen St W, Toronto, ON M5H 2M3, Canada",
    "types": [
      "city_hall",
      "establishment",
      "local_government_office",
      "point_of_interest",
      "tourist_attraction"
    ],
    "source": "geocoded",
    "description": "Old City Hall"
  },
  "5112324575": {
    "lat": 38.9909627,
    "lng": -77.0262918,
    "extracted_address": "Pacci\u2019s Neapolitan Pizzeria",
    "formatted_address": "8113 Georgia Ave, Silver Spring, MD 20910, USA",
    "types": [
      "bar",
      "establishment",
      "food",
      "point_of_interest",
      "restaurant"
    ],
    "source": "geocoded",
    "description": "Pacci\u2019s Neapolitan Pizzeria"
  },
  "3427341325": {
    "lat": 64.3127094,
    "lng": -20.300721,
    "extracted_address": "Strokkur geyser",
    "formatted_address": "8M7X+3PJ, Hafnart\u00fan, 806 Selfoss, Iceland",
    "types": [
      "establishment",
      "point_of_interest",
      "tourist_attraction"
    ],
    "source": "geocoded",
    "description": "Strokkur geyser"
  },
  "4716047404": {
    "lat": 43.6560612,
    "lng": -79.380301,
    "extracted_address": "Yonge\u2013Dundas Square",
    "formatted_address": "1 Dundas St E, Toronto, ON M5B 2R8, Canada",
    "types": [
      "establishment",
      "point_of_interest"
    ],
    "source": "geocoded",
    "description": "Yonge\u2013Dundas Square"
  },
  "5736082154": {
    "lat": 41.8777611,
    "lng": -87.62846979999999,
    "extracted_address": "The John Marshall Law School",
    "formatted_address": "315 S Plymouth Ct, Chicago, IL 60604, USA",
    "types": [
      "establishment",
      "point_of_interest"
    ],
    "source": "geocoded",
    "description": "The John Marshall Law School"
  },
  "968293102": {
    "lat": 40.7068687,
    "lng": -74.0021109,
    "extracted_address": "South Street Seaport",
    "formatted_address": "South St, New York, NY, USA",
    "types": [
      "route"
    ],
    "source": "geocoded",
    "description": "South Street Seaport"
  },
  "6995040775": {
    "lat": 34.0549076,
    "lng": -118.242643,
    "extracted_address": "Los Angeles Marathon",
    "formatted_address": "Los Angeles, CA, USA",
    "types": [
      "locality",
      "political"
    ],
    "source": "geocoded",
    "description": "Los Angeles Marathon"
  },
  "4535662044": {
    "lat": 35.6604139,
    "lng": 139.698578,
    "extracted_address": "Shibuya Center-gai",
    "formatted_address": "Shibuya Center-Gai, Udagawach\u014d, Shibuya, Tokyo 150-0042, Japan",
    "types": [
      "route"
    ],
    "source": "geocoded",
    "description": "Shibuya Center-gai"
  },
  "4881727444": {
    "lat": 37.8199109,
    "lng": -122.4785598,
    "extracted_address": "Golden Gate Bridge",
    "formatted_address": "Golden Gate Bridge, Golden Gate Brg, San Francisco, CA, USA",
    "types": [
      "establishment",
      "point_of_interest",
      "tourist_attraction"
    ],
    "source": "geocoded",
    "description": "Golden Gate Bridge"
  },
  "4543358981": {
    "lat": 34.9404329,
    "lng": -85.259925,
    "extracted_address": "Chickamauga Battlefield",
    "formatted_address": "Chickamauga Battlefield Visitor Center, 3370 Lafayette Rd, Fort Oglethorpe, GA 30742, USA",
    "types": [
      "establishment",
      "park",
      "point_of_interest",
      "tourist_attraction",
      "travel_agency"
    ],
    "source": "geocoded",
    "description": "Chickamauga Battlefield"
  },
  "6925234617": {
    "lat": 30.0430587,
    "lng": 31.239915,
    "extracted_address": "Mohamed Mahmoud Street",
    "formatted_address": "Mohammed Mahmoud, Cairo Governorate, Egypt",
    "types": [
      "route"
    ],
    "source": "geocoded",
    "description": "Mohamed Mahmoud Street"
  },
  "6875708677": {
    "lat": 35.665289,
    "lng": 139.726374,
    "extracted_address": "The National Art Center, Tokyo",
    "formatted_address": "7-ch\u014dme-22-2 Roppongi, Minato City, Tokyo 106-8558, Japan",
    "types": [
      "establishment",
      "museum",
      "point_of_interest"
    ],
    "source": "geocoded",
    "description": "The National Art Center, Tokyo"
  },
  "2790764148": {
    "lat": 51.5194437,
    "lng": -0.0843993,
    "extracted_address": "Finsbury Avenue Square",
    "formatted_address": "Finsbury Avenue Square, Finsbury Ave, London EC2M 2PA, UK",
    "types": [
      "establishment",
      "park",
      "point_of_interest"
    ],
    "source": "geocoded",
    "description": "Finsbury Avenue Square"
  },
  "39672922": {
    "lat": 45.4381109,
    "lng": 10.9915393,
    "extracted_address": "Portoni della Bra",
    "formatted_address": "Corso Porta Nuova, 2, 37122 Verona VR, Italy",
    "types": [
      "establishment",
      "landmark",
      "point_of_interest",
      "tourist_attraction"
    ],
    "source": "geocoded",
    "description": "Portoni della Bra"
  },
  "8474673006": {
    "lat": 10.7668915,
    "lng": 106.6928262,
    "extracted_address": "B\u00f9i Vi\u1ec7n",
    "formatted_address": "B\u00f9i Vi\u1ec7n, Ph\u1ea1m Ng\u0169 L\u00e3o, Qu\u1eadn 1, H\u1ed3 Ch\u00ed Minh, Vietnam",
    "types": [
      "route"
    ],
    "source": "geocoded",
    "description": "B\u00f9i Vi\u1ec7n"
  },
  "4329535990": {
    "lat": -35.785625,
    "lng": 137.551788,
    "extracted_address": "Emu Ridge Eucalyptus Oil Distillery",
    "formatted_address": "691 Willsons Rd, MacGillivray SA 5223, Australia",
    "types": [
      "bar",
      "cafe",
      "establishment",
      "food",
      "grocery_or_supermarket",
      "health",
      "point_of_interest",
      "store",
      "tourist_attraction"
    ],
    "source": "geocoded",
    "description": "Emu Ridge Eucalyptus Oil Distillery"
  },
  "1439764921": {
    "lat": 34.1739175,
    "lng": -77.8932574,
    "extracted_address": "New Hanover County Public Library",
    "formatted_address": "3802 College Rd, Wilmington, NC 28412, USA",
    "types": [
      "establishment",
      "library",
      "point_of_interest"
    ],
    "source": "geocoded",
    "description": "New Hanover County Public Library"
  },
  "8203034515": {
    "lat": 49.2820219,
    "lng": -123.1089179,
    "extracted_address": "Victory Square Cenotaph",
    "formatted_address": "150 W Hastings St, Vancouver, BC V6B 1H5, Canada",
    "types": [
      "establishment",
      "point_of_interest",
      "premise",
      "street_address"
    ],
    "source": "geocoded",
    "description": "Victory Square Cenotaph"
  },
  "284743606": {
    "lat": 38.9012445,
    "lng": -77.0507271,
    "extracted_address": "The George Washington University Hospital",
    "formatted_address": "900 23rd St NW, Washington, DC 20037, USA",
    "types": [
      "establishment",
      "health",
      "hospital",
      "point_of_interest"
    ],
    "source": "geocoded",
    "description": "The George Washington University Hospital"
  },
  "7237017308": {
    "lat": 40.7092649,
    "lng": -74.011262,
    "extracted_address": "Zuccotti Park",
    "formatted_address": "Zuccotti Park, Cedar St, New York, NY 10006, USA",
    "types": [
      "establishment",
      "park",
      "point_of_interest",
      "tourist_attraction"
    ],
    "source": "geocoded",
    "description": "Zuccotti Park"
  },
  "2694726216": {
    "lat": 40.7060855,
    "lng": -73.9968643,
    "extracted_address": "Brooklyn Bridge",
    "formatted_address": "Brooklyn Bridge, New York, NY 10038, USA",
    "types": [
      "establishment",
      "landmark",
      "point_of_interest",
      "tourist_attraction"
    ],
    "source": "geocoded",
    "description": "Brooklyn Bridge"
  },
  "5395039226": {
    "lat": 40.7479925,
    "lng": -74.0047649,
    "extracted_address": "The High Line",
    "formatted_address": "The High Line, New York, NY 10011, USA",
    "types": [
      "establishment",
      "park",
      "point_of_interest",
      "tourist_attraction"
    ],
    "source": "geocoded",
    "description": "The High Line"
  },
  "1351246086": {
    "lat": 33.223191,
    "lng": 43.679291,
    "extracted_address": "Iraq (likely at a military site or berm in a palm-lined area).",
    "formatted_address": "Iraq",
    "types": [
      "country",
      "political"
    ],
    "source": "geocoded",
    "description": "military site"
  },
  "8815795798": {
    "lat": 22.3193039,
    "lng": 114.1693611,
    "extracted_address": "Hong Kong",
    "formatted_address": "Hong Kong",
    "types": [
      "country",
      "political"
    ],
    "source": "geocoded",
    "description": "Hong Kong"
  },
  "3974322793": {
    "lat": 35.4273243,
    "lng": -75.4898156,
    "extracted_address": "Cape Hatteras National Seashore",
    "formatted_address": "Cape Hatteras National Seashore, North Carolina, USA",
    "types": [
      "establishment",
      "park",
      "point_of_interest"
    ],
    "source": "geocoded",
    "description": "Cape Hatteras National Seashore"
  },
  "5682064843": {
    "lat": 37.2628713,
    "lng": -76.6367703,
    "extracted_address": "Water Country USA",
    "formatted_address": "176 Water Country Pkwy, Williamsburg, VA 23185, USA",
    "types": [
      "amusement_park",
      "establishment",
      "point_of_interest",
      "tourist_attraction"
    ],
    "source": "geocoded",
    "description": "Water Country USA"
  },
  "11014929335": {
    "lat": 51.6300268,
    "lng": -0.7551445999999999,
    "extracted_address": "Eden Shopping Centre",
    "formatted_address": "Oxford Rd, High Wycombe HP11 2DQ, UK",
    "types": [
      "establishment",
      "point_of_interest",
      "shopping_mall"
    ],
    "source": "geocoded",
    "description": "Eden Shopping Centre"
  },
  "522146989": {
    "lat": 50.94127839999999,
    "lng": 6.9582814,
    "extracted_address": "Cologne Cathedral",
    "formatted_address": "Domkloster 4, 50667 K\u00f6ln, Germany",
    "types": [
      "church",
      "establishment",
      "museum",
      "place_of_worship",
      "point_of_interest",
      "tourist_attraction"
    ],
    "source": "geocoded",
    "description": "Cologne Cathedral"
  },
  "683194672": {
    "lat": 35.6685576,
    "lng": 139.7053941,
    "extracted_address": "Omotesando/Meiji\u2011dori crossing",
    "formatted_address": "Omote-Sando Ave & Meiji-dori Ave, 1 Chome-11 Jingumae, Shibuya, Tokyo 150-0001, Japan",
    "types": [
      "intersection"
    ],
    "source": "geocoded",
    "description": "Omotesando/Meiji\u2011dori crossing"
  },
  "31700873": {
    "lat": 34.6889851,
    "lng": 135.8398158,
    "extracted_address": "T\u014ddai-ji",
    "formatted_address": "406-1 Z\u014dshich\u014d, Nara, 630-8587, Japan",
    "types": [
      "establishment",
      "place_of_worship",
      "point_of_interest",
      "tourist_attraction"
    ],
    "source": "geocoded",
    "description": "T\u014ddai-ji"
  },
  "5923624371": {
    "lat": 40.7685167,
    "lng": -73.98219379999999,
    "extracted_address": "Manhattan",
    "formatted_address": "Manhattan, New York, NY, USA",
    "types": [
      "political",
      "sublocality",
      "sublocality_level_1"
    ],
    "source": "geocoded",
    "description": "Manhattan"
  },
  "4441179970": {
    "lat": 37.2939104,
    "lng": 127.2025664,
    "extracted_address": "Everland theme park",
    "formatted_address": "199 Everland-ro, Pogok-eup, Cheoin-gu, Yongin-si, Gyeonggi-do, South Korea",
    "types": [
      "amusement_park",
      "establishment",
      "point_of_interest",
      "tourist_attraction"
    ],
    "source": "geocoded",
    "description": "Everland theme park"
  },
  "2337753762": {
    "lat": 55.378051,
    "lng": -3.435973,
    "extracted_address": "United Kingdom \u2014 at a Sainsbury\u2019s\u2011sponsored road race event.",
    "formatted_address": "United Kingdom",
    "types": [
      "country",
      "political"
    ],
    "source": "geocoded",
    "description": "Sainsbury\u2019s"
  },
  "2846936237": {
    "lat": 47.6310836,
    "lng": -122.3163794,
    "extracted_address": "Volunteer Park",
    "formatted_address": "Volunteer Park, 1247 15th Ave E, Seattle, WA 98112, USA",
    "types": [
      "establishment",
      "park",
      "point_of_interest",
      "tourist_attraction"
    ],
    "source": "geocoded",
    "description": "Volunteer Park"
  },
  "1388076875": {
    "lat": 50.905926,
    "lng": -4.520617,
    "extracted_address": "United Kingdom (likely England) \u2013 a city street outside a shop with an \u201coff licence.\u201d",
    "formatted_address": "Shop, Bude EX23, UK",
    "types": [
      "locality",
      "political"
    ],
    "source": "geocoded",
    "description": "off licence"
  },
  "3436537095": {
    "lat": 42.5246357,
    "lng": -92.4604145,
    "extracted_address": "Midwestern United States",
    "formatted_address": "Midwestern United States, USA",
    "types": [
      "colloquial_area",
      "political"
    ],
    "source": "geocoded",
    "description": "Midwestern United States"
  },
  "446995789": {
    "lat": -13.5050343,
    "lng": -71.98014429999999,
    "extracted_address": "Sacsayhuam\u00e1n",
    "formatted_address": "Sacsayhuaman, Peru",
    "types": [
      "neighborhood",
      "political"
    ],
    "source": "geocoded",
    "description": "Sacsayhuam\u00e1n"
  },
  "13963887305": {
    "lat": 25.77043,
    "lng": 110.13218,
    "extracted_address": "Longji Rice Terraces",
    "formatted_address": "Q4CJ+5VF, Longsheng Various Nationalities Autonomous County, Guilin, Guangxi, China, 541701",
    "types": [
      "establishment",
      "point_of_interest",
      "tourist_attraction"
    ],
    "source": "geocoded",
    "description": "Longji Rice Terraces"
  },
  "5596097823": {
    "lat": -37.2108819,
    "lng": 142.3979571,
    "extracted_address": "Grampians (Gariwerd) National Park",
    "formatted_address": "Grampians National Park, Victoria, Australia",
    "types": [
      "establishment",
      "park",
      "point_of_interest",
      "tourist_attraction"
    ],
    "source": "geocoded",
    "description": "Grampians (Gariwerd) National Park"
  },
  "5628690825": {
    "lat": 43.3173926,
    "lng": -1.9799612,
    "extracted_address": "Plaza de Bilbao",
    "formatted_address": "De Bilbao Plaza, 20005 Donostia, Gipuzkoa, Spain",
    "types": [
      "route"
    ],
    "source": "geocoded",
    "description": "Plaza de Bilbao"
  },
  "7521123428": {
    "lat": 35.7374373,
    "lng": 139.7856575,
    "extracted_address": "Arakawa",
    "formatted_address": "Arakawa, Arakawa City, Tokyo 116-0002, Japan",
    "types": [
      "political",
      "sublocality",
      "sublocality_level_2"
    ],
    "source": "geocoded",
    "description": "Arakawa"
  },
  "109444762": {
    "lat": 32.7706526,
    "lng": -117.2514447,
    "extracted_address": "Mission Beach",
    "formatted_address": "Mission Beach, San Diego, CA 92109, USA",
    "types": [
      "neighborhood",
      "political"
    ],
    "source": "geocoded",
    "description": "Mission Beach"
  },
  "3247860886": {
    "lat": 55.378051,
    "lng": -3.435973,
    "extracted_address": "United Kingdom \u2014 a residential street during a snowstorm (the red Biffa waste bins are a common UK indicator).",
    "formatted_address": "United Kingdom",
    "types": [
      "country",
      "political"
    ],
    "source": "geocoded",
    "description": "Biffa waste bins"
  },
  "4789622814": {
    "lat": -33.922087,
    "lng": 18.4231418,
    "extracted_address": "Cape Town, South Africa \u2014 at a FIFA World Cup fan zone (2010).",
    "formatted_address": "Cape Town, South Africa",
    "types": [
      "locality",
      "political"
    ],
    "source": "geocoded",
    "description": "FIFA World Cup fan zone"
  },
  "352380518": {
    "lat": 36.2678855,
    "lng": -112.3535253,
    "extracted_address": "Grand Canyon National Park",
    "formatted_address": "Grand Canyon National Park, Arizona, USA",
    "types": [
      "establishment",
      "park",
      "point_of_interest",
      "tourist_attraction"
    ],
    "source": "geocoded",
    "description": "Grand Canyon National Park"
  },
  "311861136": {
    "lat": 31.29833989999999,
    "lng": 120.58319,
    "extracted_address": "Suzhou",
    "formatted_address": "Suzhou, Jiangsu, China",
    "types": [
      "locality",
      "political"
    ],
    "source": "geocoded",
    "description": "Suzhou"
  },
  "565519767": {
    "lat": 51.5010564,
    "lng": -0.1268467,
    "extracted_address": "Parliament Square",
    "formatted_address": "Parliament Sq, London SW1, UK",
    "types": [
      "route"
    ],
    "source": "geocoded",
    "description": "Parliament Square"
  },
  "7467989216": {
    "lat": 51.5072178,
    "lng": -0.1275862,
    "extracted_address": "London 2012 Olympic Torch Relay event",
    "formatted_address": "London, UK",
    "types": [
      "locality",
      "political"
    ],
    "source": "geocoded",
    "description": "London 2012 Olympic Torch Relay event"
  },
  "7159800926": {
    "lat": 48.8673634,
    "lng": 2.3634884,
    "extracted_address": "Paris, France \u2014 likely around Place de la R\u00e9publique.",
    "formatted_address": "Pl. de la R\u00e9publique, Paris, France",
    "types": [
      "route"
    ],
    "source": "geocoded",
    "description": "Place de la R\u00e9publique"
  },
  "4101969711": {
    "lat": 37.787552,
    "lng": -122.4066183,
    "extracted_address": "Downtown San Francisco",
    "formatted_address": "Union Square, San Francisco, CA, USA",
    "types": [
      "neighborhood",
      "political"
    ],
    "source": "geocoded",
    "description": "Downtown San Francisco"
  },
  "2280991185": {
    "lat": 40.7579747,
    "lng": -73.9855426,
    "extracted_address": "Times Square",
    "formatted_address": "Manhattan, NY 10036, USA",
    "types": [
      "establishment",
      "point_of_interest",
      "tourist_attraction"
    ],
    "source": "geocoded",
    "description": "Times Square"
  },
  "6015197942": {
    "lat": 45.5454594,
    "lng": -122.7456163,
    "extracted_address": "forest park trailhead",
    "formatted_address": "Forest Park Trailhead, 2900-3500, NW Forest Ln, Portland, OR 97229, USA",
    "types": [
      "establishment",
      "park",
      "point_of_interest"
    ],
    "source": "geocoded",
    "description": "forest park trailhead"
  },
  "496664918": {
    "lat": 40.7825547,
    "lng": -73.9655834,
    "extracted_address": "Central Park",
    "formatted_address": "Central Park, New York, NY, USA",
    "types": [
      "establishment",
      "park",
      "point_of_interest",
      "tourist_attraction"
    ],
    "source": "geocoded",
    "description": "Central Park"
  },
  "129841428": {
    "lat": 39.9574604,
    "lng": -75.181684,
    "extracted_address": "Cira Centre",
    "formatted_address": "Cira Center, 2929 Arch St, Philadelphia, PA 19104, USA",
    "types": [
      "premise",
      "street_address"
    ],
    "source": "geocoded",
    "description": "Cira Centre"
  },
  "5787620294": {
    "lat": -17.9284388,
    "lng": 25.857203,
    "extracted_address": "Victoria Falls Bridge",
    "formatted_address": "Victoria Falls Bridge, Zimbabwe Africa, Livingstone Way, Victoria Falls, Zimbabwe",
    "types": [
      "establishment",
      "point_of_interest",
      "tourist_attraction"
    ],
    "source": "geocoded",
    "description": "Victoria Falls Bridge"
  },
  "3141232303": {
    "lat": 48.8666495,
    "lng": 2.361601,
    "extracted_address": "Temple M\u00e9tro station",
    "formatted_address": "Temple, 75003 Paris, France",
    "types": [
      "establishment",
      "point_of_interest",
      "subway_station",
      "transit_station"
    ],
    "source": "geocoded",
    "description": "Temple M\u00e9tro station"
  },
  "6127913719": {
    "lat": 34.1234559,
    "lng": -118.3875072,
    "extracted_address": "An overlook along Mulholland Drive in the Hollywood Hills, Los Angeles, California.",
    "formatted_address": "Mulholland Dr, Los Angeles, CA, USA",
    "types": [
      "route"
    ],
    "source": "geocoded",
    "description": "Mulholland Drive"
  },
  "393048108": {
    "lat": 37.7933687,
    "lng": -122.407312,
    "extracted_address": "Pagoda Street",
    "formatted_address": "Pagoda Pl, San Francisco, CA 94108, USA",
    "types": [
      "route"
    ],
    "source": "geocoded",
    "description": "Pagoda Street"
  },
  "902804092": {
    "lat": -34.9827948,
    "lng": 116.790204,
    "extracted_address": "Giant Tingle Tree",
    "formatted_address": "Giant Tingle Tree, Hilltop Rd, Walpole WA 6398, Australia",
    "types": [
      "establishment",
      "park",
      "point_of_interest",
      "tourist_attraction"
    ],
    "source": "geocoded",
    "description": "Giant Tingle Tree"
  },
  "3623215891": {
    "lat": 41.88889229999999,
    "lng": -87.6243453,
    "extracted_address": "Michigan Avenue (DuSable) Bridge",
    "formatted_address": "DuSable Bridge, 333 Michigan Ave, Chicago, IL 60601, USA",
    "types": [
      "establishment",
      "point_of_interest",
      "tourist_attraction"
    ],
    "source": "geocoded",
    "description": "Michigan Avenue (DuSable) Bridge"
  },
  "14006146813": {
    "lat": 19.4087958,
    "lng": -155.9026125,
    "extracted_address": "Pu\u02bbuhonua o H\u014dnaunau National Historical Park",
    "formatted_address": "Pu'uhonua O Honaunau National Historical Park, State Hwy 160, H\u014dnaunau, HI 96726, USA",
    "types": [
      "establishment",
      "park",
      "point_of_interest"
    ],
    "source": "geocoded",
    "description": "Pu\u02bbuhonua o H\u014dnaunau National Historical Park"
  },
  "5086239896": {
    "lat": 48.8610797,
    "lng": 2.3659925,
    "extracted_address": "A station platform in the Paris M\u00e9tro, Paris, France.",
    "formatted_address": "13-15 Rue du Pont aux Choux, 75003 Paris, France",
    "types": [
      "establishment",
      "point_of_interest"
    ],
    "source": "geocoded",
    "description": "Paris M\u00e9tro"
  },
  "5404476958": {
    "lat": 37.7851118,
    "lng": -122.4072055,
    "extracted_address": "The Gap store at Market & Powell Streets, San Francisco (in the Flood Building near Union Square).",
    "formatted_address": "870 Market St, San Francisco, CA 94102, USA",
    "types": [
      "establishment",
      "point_of_interest",
      "tourist_attraction"
    ],
    "source": "geocoded",
    "description": "The Gap store"
  },
  "6062877661": {
    "lat": 40.7479925,
    "lng": -74.0047649,
    "extracted_address": "The High Line",
    "formatted_address": "The High Line, New York, NY 10011, USA",
    "types": [
      "establishment",
      "park",
      "point_of_interest",
      "tourist_attraction"
    ],
    "source": "geocoded",
    "description": "The High Line"
  },
  "197132294": {
    "lat": 40.7685167,
    "lng": -73.98219379999999,
    "extracted_address": "Williamsburg Bridge, New York City (crossing the East River between Manhattan and Brooklyn).",
    "formatted_address": "Manhattan, New York, NY, USA",
    "types": [
      "political",
      "sublocality",
      "sublocality_level_1"
    ],
    "source": "geocoded",
    "description": "Williamsburg Bridge"
  },
  "5746464724": {
    "lat": 38.9249059,
    "lng": -77.06863899999999,
    "extracted_address": "St. Nicholas\u2019 Cathedral",
    "formatted_address": "3500 Massachusetts Ave NW, Washington, DC 20007, USA",
    "types": [
      "church",
      "establishment",
      "place_of_worship",
      "point_of_interest",
      "tourist_attraction"
    ],
    "source": "geocoded",
    "description": "St. Nicholas\u2019 Cathedral"
  },
  "13349689403": {
    "lat": 35.0491384,
    "lng": 136.8509152,
    "extracted_address": "SCMAGLEV and Railway Park",
    "formatted_address": "3-ch\u014dme-2-2 Kinj\u014dfut\u014d, Minato Ward, Nagoya, Aichi 455-0848, Japan",
    "types": [
      "establishment",
      "museum",
      "point_of_interest",
      "tourist_attraction"
    ],
    "source": "geocoded",
    "description": "SCMAGLEV and Railway Park"
  },
  "6773483160": {
    "lat": 38.8875144,
    "lng": -77.0363934,
    "extracted_address": "National Mall",
    "formatted_address": "National Mall, Washington, DC, USA",
    "types": [
      "establishment",
      "park",
      "point_of_interest",
      "tourist_attraction"
    ],
    "source": "geocoded",
    "description": "National Mall"
  },
  "5377580962": {
    "lat": 1.294889,
    "lng": 103.854483,
    "extracted_address": "Raffles Hotel",
    "formatted_address": "1 Beach Rd, Singapore 189673",
    "types": [
      "establishment",
      "lodging",
      "point_of_interest"
    ],
    "source": "geocoded",
    "description": "Raffles Hotel"
  },
  "6186170638": {
    "lat": 51.5072178,
    "lng": -0.1275862,
    "extracted_address": "London",
    "formatted_address": "London, UK",
    "types": [
      "locality",
      "political"
    ],
    "source": "geocoded",
    "description": "London"
  },
  "3858951022": {
    "lat": 28.3580628,
    "lng": -81.5590975,
    "extracted_address": "Disney\u2019s Hollywood Studios",
    "formatted_address": "Bay Lake, FL 34747, USA",
    "types": [
      "amusement_park",
      "establishment",
      "point_of_interest",
      "tourist_attraction"
    ],
    "source": "geocoded",
    "description": "Disney\u2019s Hollywood Studios"
  },
  "3286282738": {
    "lat": 43.6527069,
    "lng": -79.38341369999999,
    "extracted_address": "Nathan Phillips Square",
    "formatted_address": "100 Queen St W, Toronto, ON M5H 2N3, Canada",
    "types": [
      "establishment",
      "point_of_interest",
      "tourist_attraction"
    ],
    "source": "geocoded",
    "description": "Nathan Phillips Square"
  },
  "7932100896": {
    "lat": 54.681399,
    "lng": 25.285027,
    "extracted_address": "Vilnius, Lithuania \u2014 in the Old Town on \u0160v. Ignoto Street, by the \u201cMint Vinetu\u201d bookstore.",
    "formatted_address": "\u0160v. Ignoto g. 16, 01144 Vilnius, Lithuania",
    "types": [
      "book_store",
      "cafe",
      "establishment",
      "food",
      "point_of_interest",
      "store"
    ],
    "source": "geocoded",
    "description": "\u0160v. Ignoto Street"
  },
  "4943904461": {
    "lat": 34.276795,
    "lng": 108.947241,
    "extracted_address": "Xi\u2019an City Wall",
    "formatted_address": "Xincheng, Xi'An, China, 710003",
    "types": [
      "establishment",
      "point_of_interest",
      "tourist_attraction"
    ],
    "source": "geocoded",
    "description": "Xi\u2019an City Wall"
  },
  "12246783313": {
    "lat": 36.1216343,
    "lng": -115.1763346,
    "extracted_address": "The Mirage Hotel & Casino",
    "formatted_address": "3400 S Las Vegas Blvd, Las Vegas, NV 89109, USA",
    "types": [
      "casino",
      "establishment",
      "lodging",
      "point_of_interest"
    ],
    "source": "geocoded",
    "description": "The Mirage Hotel & Casino"
  },
  "1289357310": {
    "lat": 41.3785963,
    "lng": 2.1321503,
    "extracted_address": "Hivernacle greenhouse",
    "formatted_address": "Carrer de Melcior de Palau, 32, 36, Sants-Montju\u00efc, 08028 Barcelona, Spain",
    "types": [
      "establishment",
      "point_of_interest",
      "store"
    ],
    "source": "geocoded",
    "description": "Hivernacle greenhouse"
  },
  "2936373184": {
    "lat": 42.373465,
    "lng": -71.1189467,
    "extracted_address": "Harvard Square",
    "formatted_address": "Brattle St, Cambridge, MA 02138, USA",
    "types": [
      "establishment",
      "point_of_interest",
      "tourist_attraction"
    ],
    "source": "geocoded",
    "description": "Harvard Square"
  },
  "5157067509": {
    "lat": 40.7535367,
    "lng": -73.9829529,
    "extracted_address": "Bryant Park",
    "formatted_address": "Bryant Park, New York, NY 10018, USA",
    "types": [
      "establishment",
      "park",
      "point_of_interest",
      "tourist_attraction"
    ],
    "source": "geocoded",
    "description": "Bryant Park"
  },
  "251877645": {
    "lat": 45.5326996,
    "lng": -122.0878302,
    "extracted_address": "Sherrard Point",
    "formatted_address": "Sherrard Point, Oregon 97014, USA",
    "types": [
      "establishment",
      "natural_feature"
    ],
    "source": "geocoded",
    "description": "Sherrard Point"
  },
  "5566412490": {
    "lat": 30.0444283,
    "lng": 31.2357637,
    "extracted_address": "Tahrir Square",
    "formatted_address": "El- Tahrir Square, El-Tahrir Square, \u0645\u062d\u0637\u0629 \u0627\u0644\u0633\u0627\u062f\u0627\u062a\u060c Qasr El Nil, Cairo Governorate 11512, Egypt",
    "types": [
      "establishment",
      "landmark",
      "park",
      "point_of_interest"
    ],
    "source": "geocoded",
    "description": "Tahrir Square"
  },
  "2954529438": {
    "lat": 43.72322519999999,
    "lng": 10.3947238,
    "extracted_address": "Piazza dei Miracoli",
    "formatted_address": "Piazza del Duomo, 56126 Pisa PI, Italy",
    "types": [
      "establishment",
      "point_of_interest",
      "tourist_attraction"
    ],
    "source": "geocoded",
    "description": "Piazza dei Miracoli"
  },
  "3793961408": {
    "lat": 40.7579747,
    "lng": -73.9855426,
    "extracted_address": "Times Square",
    "formatted_address": "Manhattan, NY 10036, USA",
    "types": [
      "establishment",
      "point_of_interest",
      "tourist_attraction"
    ],
    "source": "geocoded",
    "description": "Times Square"
  },
  "3642427417": {
    "lat": 10.6393204,
    "lng": -71.6095386,
    "extracted_address": "Centro de Arte de Maracaibo L\u00eda Berm\u00fadez",
    "formatted_address": "J9QR+P5G, C. 99 \u00a8Comercio\u00a8, Maracaibo 4001, Zulia, Venezuela",
    "types": [
      "establishment",
      "movie_theater",
      "museum",
      "point_of_interest"
    ],
    "source": "geocoded",
    "description": "Centro de Arte de Maracaibo L\u00eda Berm\u00fadez"
  },
  "7640965516": {
    "lat": 38.6173893,
    "lng": -90.2139151,
    "extracted_address": "Lafayette Square",
    "formatted_address": "Lafayette Square, St. Louis, MO, USA",
    "types": [
      "neighborhood",
      "political"
    ],
    "source": "geocoded",
    "description": "Lafayette Square"
  },
  "2220485647": {
    "lat": 39.9168038,
    "lng": 116.3971621,
    "extracted_address": "The Forbidden City",
    "formatted_address": "4 Jing Shan Qian Jie, Dong Cheng Qu, Bei Jing Shi, China, 100009",
    "types": [
      "establishment",
      "point_of_interest",
      "tourist_attraction"
    ],
    "source": "geocoded",
    "description": "The Forbidden City"
  },
  "1499652266": {
    "lat": 19.4346038,
    "lng": -99.13188099999999,
    "extracted_address": "Templo Mayor",
    "formatted_address": "Seminario 8, Centro Hist\u00f3rico de la Cdad. de M\u00e9xico, Centro, Cuauht\u00e9moc, 06060 Ciudad de M\u00e9xico, CDMX, Mexico",
    "types": [
      "establishment",
      "museum",
      "point_of_interest",
      "tourist_attraction"
    ],
    "source": "geocoded",
    "description": "Templo Mayor"
  },
  "3754912645": {
    "lat": 51.5014793,
    "lng": -0.1723464,
    "extracted_address": "Iranian Embassy",
    "formatted_address": "16 Princes Gate, London SW7 1PT, UK",
    "types": [
      "embassy",
      "establishment",
      "point_of_interest"
    ],
    "source": "geocoded",
    "description": "Iranian Embassy"
  },
  "3014182108": {
    "lat": 42.3319145,
    "lng": -83.0465866,
    "extracted_address": "Campus Martius",
    "formatted_address": "Campus Martius Park, Campus Martius Park, 800 Woodward Ave, Detroit, MI 48226, USA",
    "types": [
      "establishment",
      "park",
      "point_of_interest",
      "tourist_attraction"
    ],
    "source": "geocoded",
    "description": "Campus Martius"
  },
  "2877611238": {
    "lat": 40.7659238,
    "lng": -73.9794562,
    "extracted_address": "Alwyn Court",
    "formatted_address": "180 W 58th St, New York, NY 10019, USA",
    "types": [
      "establishment",
      "point_of_interest"
    ],
    "source": "geocoded",
    "description": "Alwyn Court"
  },
  "193907931": {
    "lat": 38.9096936,
    "lng": -77.043339,
    "extracted_address": "Dupont Circle",
    "formatted_address": "Dupont Circle, Washington, DC, USA",
    "types": [
      "neighborhood",
      "political"
    ],
    "source": "geocoded",
    "description": "Dupont Circle"
  },
  "2302850654": {
    "lat": 50.8191746,
    "lng": 0.3341406,
    "extracted_address": "Pevensey Castle",
    "formatted_address": "Castle Rd, Westham, Pevensey BN24 5LE, UK",
    "types": [
      "establishment",
      "museum",
      "point_of_interest",
      "tourist_attraction"
    ],
    "source": "geocoded",
    "description": "Pevensey Castle"
  },
  "8522888335": {
    "lat": 38.8966431,
    "lng": -77.0175888,
    "extracted_address": "National Law Enforcement Officers Memorial",
    "formatted_address": "National Law Enforcement Officers Memorial, 450 F St NW, Washington, DC 20001, USA",
    "types": [
      "establishment",
      "park",
      "point_of_interest",
      "tourist_attraction"
    ],
    "source": "geocoded",
    "description": "National Law Enforcement Officers Memorial"
  },
  "3589957410": {
    "lat": 47.6094076,
    "lng": -122.3418358,
    "extracted_address": "Pike Place Market",
    "formatted_address": "85 Pike St, Seattle, WA 98101, USA",
    "types": [
      "establishment",
      "food",
      "grocery_or_supermarket",
      "point_of_interest",
      "restaurant",
      "store",
      "tourist_attraction"
    ],
    "source": "geocoded",
    "description": "Pike Place Market"
  },
  "5474543169": {
    "lat": 40.415511,
    "lng": -3.7074009,
    "extracted_address": "Plaza Mayor",
    "formatted_address": "Pl. Mayor, Centro, 28012 Madrid, Spain",
    "types": [
      "establishment",
      "point_of_interest",
      "tourist_attraction"
    ],
    "source": "geocoded",
    "description": "Plaza Mayor"
  },
  "1659477928": {
    "lat": 35.7020186,
    "lng": 139.7678943,
    "extracted_address": "Kanda Myojin Shrine",
    "formatted_address": "2-ch\u014dme-16-2 Sotokanda, Chiyoda City, Tokyo 101-0021, Japan",
    "types": [
      "establishment",
      "place_of_worship",
      "point_of_interest",
      "tourist_attraction"
    ],
    "source": "geocoded",
    "description": "Kanda Myojin Shrine"
  },
  "5147781642": {
    "lat": 38.891298,
    "lng": -77.019965,
    "extracted_address": "National Gallery of Art",
    "formatted_address": "Constitution Ave. NW, Washington, DC 20565, USA",
    "types": [
      "art_gallery",
      "establishment",
      "museum",
      "point_of_interest",
      "tourist_attraction"
    ],
    "source": "geocoded",
    "description": "National Gallery of Art"
  },
  "7405826530": {
    "lat": 33.8134091,
    "lng": -117.9189774,
    "extracted_address": "King Arthur Carrousel",
    "formatted_address": "1313 Disneyland Dr, Anaheim, CA 92802, USA",
    "types": [
      "establishment",
      "point_of_interest",
      "tourist_attraction"
    ],
    "source": "geocoded",
    "description": "King Arthur Carrousel"
  },
  "4982589142": {
    "lat": 37.7689203,
    "lng": -122.482977,
    "extracted_address": "Golden Gate Park",
    "formatted_address": "Golden Gate Park, San Francisco, CA, USA",
    "types": [
      "establishment",
      "park",
      "point_of_interest",
      "tourist_attraction"
    ],
    "source": "geocoded",
    "description": "Golden Gate Park"
  },
  "3667871009": {
    "lat": 32.4434174,
    "lng": -110.7881222,
    "extracted_address": "Mount Lemmon",
    "formatted_address": "Mt Lemmon, Summerhaven, AZ 85619, USA",
    "types": [
      "establishment",
      "natural_feature"
    ],
    "source": "geocoded",
    "description": "Mount Lemmon"
  },
  "204004897": {
    "lat": 41.4144948,
    "lng": 2.1526945,
    "extracted_address": "Park G\u00fcell",
    "formatted_address": "Park G\u00fcell, Gr\u00e0cia, 08024 Barcelona, Spain",
    "types": [
      "establishment",
      "park",
      "point_of_interest",
      "tourist_attraction"
    ],
    "source": "geocoded",
    "description": "Park G\u00fcell"
  },
  "3604340060": {
    "lat": 48.8736224,
    "lng": 2.3321099,
    "extracted_address": "Paris, France \u2014 near the Galeries Lafayette on Boulevard Haussmann.",
    "formatted_address": "40 Bd Haussmann, 75009 Paris, France",
    "types": [
      "clothing_store",
      "department_store",
      "establishment",
      "point_of_interest",
      "store"
    ],
    "source": "geocoded",
    "description": "Galeries Lafayette"
  },
  "6961442808": {
    "lat": 37.5177902,
    "lng": -122.5128227,
    "extracted_address": "Moss Beach Distillery",
    "formatted_address": "140 Beach Way, Moss Beach, CA 94038, USA",
    "types": [
      "bar",
      "establishment",
      "food",
      "point_of_interest",
      "restaurant"
    ],
    "source": "geocoded",
    "description": "Moss Beach Distillery"
  },
  "2070098562": {
    "lat": 25.7443866,
    "lng": -80.21047469999999,
    "extracted_address": "Vizcaya Museum and Gardens",
    "formatted_address": "3251 S Miami Ave, Miami, FL 33129, USA",
    "types": [
      "establishment",
      "museum",
      "point_of_interest",
      "tourist_attraction"
    ],
    "source": "geocoded",
    "description": "Vizcaya Museum and Gardens"
  },
  "2748295493": {
    "lat": 50.0864771,
    "lng": 14.4114366,
    "extracted_address": "Charles Bridge",
    "formatted_address": "Charles Bridge, Karl\u016fv most, 110 00 Praha 1, Czechia",
    "types": [
      "establishment",
      "point_of_interest",
      "tourist_attraction"
    ],
    "source": "geocoded",
    "description": "Charles Bridge"
  },
  "2042084815": {
    "lat": 40.5962506,
    "lng": -73.5152445,
    "extracted_address": "Jones Beach State Park",
    "formatted_address": "Jones Beach State Park, 1 Ocean Pkwy, Wantagh, NY 11793, USA",
    "types": [
      "establishment",
      "park",
      "point_of_interest",
      "stadium",
      "store",
      "tourist_attraction"
    ],
    "source": "geocoded",
    "description": "Jones Beach State Park"
  },
  "3239097412": {
    "lat": 48.3384917,
    "lng": 8.4607759,
    "extracted_address": "Graben",
    "formatted_address": "72275 Alpirsbach-Gr\u00e4ben, Germany",
    "types": [
      "political",
      "sublocality",
      "sublocality_level_1"
    ],
    "source": "geocoded",
    "description": "Graben"
  },
  "9003525390": {
    "lat": 38.9096936,
    "lng": -77.043339,
    "extracted_address": "Dupont Circle",
    "formatted_address": "Dupont Circle, Washington, DC, USA",
    "types": [
      "neighborhood",
      "political"
    ],
    "source": "geocoded",
    "description": "Dupont Circle"
  },
  "13169205385": {
    "lat": 10.8230989,
    "lng": 106.6296638,
    "extracted_address": "Ho Chi Minh City",
    "formatted_address": "Ho Chi Minh City, Vietnam",
    "types": [
      "locality",
      "political"
    ],
    "source": "geocoded",
    "description": "Ho Chi Minh City"
  },
  "4844677845": {
    "lat": 33.4715155,
    "lng": -112.2328524,
    "extracted_address": "Ak-Chin Pavilion",
    "formatted_address": "2121 N 83rd Ave, Phoenix, AZ 85035, USA",
    "types": [
      "establishment",
      "point_of_interest"
    ],
    "source": "geocoded",
    "description": "Ak-Chin Pavilion"
  },
  "3973580742": {
    "lat": 32.7549063,
    "lng": -117.1976407,
    "extracted_address": "Old Town San Diego State Historic Park",
    "formatted_address": "Old Town San Diego St Hist Pk, San Diego Avenue and, Twiggs St, San Diego, CA 92110, USA",
    "types": [
      "establishment",
      "museum",
      "park",
      "point_of_interest",
      "tourist_attraction"
    ],
    "source": "geocoded",
    "description": "Old Town San Diego State Historic Park"
  },
  "5481961530": {
    "lat": 40.4167321,
    "lng": -3.7032922,
    "extracted_address": "Puerta del Sol, Madrid, Spain.",
    "formatted_address": "Prta del Sol, Centro, Madrid, Spain",
    "types": [
      "route"
    ],
    "source": "geocoded",
    "description": "Puerta del Sol"
  },
  "33337329": {
    "lat": 40.7308838,
    "lng": -73.997332,
    "extracted_address": "Washington Square Park",
    "formatted_address": "Washington Square Park, New York, NY 10012, USA",
    "types": [
      "establishment",
      "park",
      "point_of_interest",
      "tourist_attraction"
    ],
    "source": "geocoded",
    "description": "Washington Square Park"
  },
  "3106038695": {
    "lat": 51.5096372,
    "lng": -0.1458393,
    "extracted_address": "Berkeley Square",
    "formatted_address": "Berkeley Square, 45 Berkeley Square, London W1J 5AS, UK",
    "types": [
      "establishment",
      "park",
      "point_of_interest"
    ],
    "source": "geocoded",
    "description": "Berkeley Square"
  },
  "4355057737": {
    "lat": 39.03561620000001,
    "lng": -84.5691102,
    "extracted_address": "Lakeside Park",
    "formatted_address": "Lakeside Park, KY 41017, USA",
    "types": [
      "locality",
      "political"
    ],
    "source": "geocoded",
    "description": "Lakeside Park"
  },
  "2138372551": {
    "lat": 52.5194665,
    "lng": 13.3987445,
    "extracted_address": "Altes Museum",
    "formatted_address": "Bodestra\u00dfe 1-3, 10178 Berlin, Germany",
    "types": [
      "establishment",
      "museum",
      "point_of_interest",
      "tourist_attraction"
    ],
    "source": "geocoded",
    "description": "Altes Museum"
  },
  "3493262591": {
    "lat": 51.5142202,
    "lng": -0.1419841,
    "extracted_address": "Apple Store, Regent Street, London, United Kingdom.",
    "formatted_address": "235 Regent St., London W1B 2EL, UK",
    "types": [
      "electronics_store",
      "establishment",
      "point_of_interest",
      "store"
    ],
    "source": "geocoded",
    "description": "Apple Store"
  },
  "8216324990": {
    "lat": 1.4087305,
    "lng": 103.9910305,
    "extracted_address": "Chek Jawa",
    "formatted_address": "Chek Jawa Trail, Chek Jawa Wetlands, Singapore",
    "types": [
      "establishment",
      "park",
      "point_of_interest",
      "tourist_attraction"
    ],
    "source": "geocoded",
    "description": "Chek Jawa"
  },
  "443981425": {
    "lat": 47.6027783,
    "lng": -122.3304087,
    "extracted_address": "King County Courthouse",
    "formatted_address": "516 3rd Ave, Seattle, WA 98104, USA",
    "types": [
      "courthouse",
      "establishment",
      "local_government_office",
      "point_of_interest"
    ],
    "source": "geocoded",
    "description": "King County Courthouse"
  },
  "4151002246": {
    "lat": 25.204757,
    "lng": 121.6896172,
    "extracted_address": "Yehliu Geopark",
    "formatted_address": "Yeliou, New Taipei City, Taiwan",
    "types": [
      "colloquial_area",
      "political"
    ],
    "source": "geocoded",
    "description": "Yehliu Geopark"
  },
  "7553525110": {
    "lat": 40.7579747,
    "lng": -73.9855426,
    "extracted_address": "Times Square",
    "formatted_address": "Manhattan, NY 10036, USA",
    "types": [
      "establishment",
      "point_of_interest",
      "tourist_attraction"
    ],
    "source": "geocoded",
    "description": "Times Square"
  },
  "6930209086": {
    "lat": 30.0430587,
    "lng": 31.239915,
    "extracted_address": "Mohamed Mahmoud Street",
    "formatted_address": "Mohammed Mahmoud, Cairo Governorate, Egypt",
    "types": [
      "route"
    ],
    "source": "geocoded",
    "description": "Mohamed Mahmoud Street"
  },
  "3957939154": {
    "lat": 48.4196283,
    "lng": -123.3702583,
    "extracted_address": "British Columbia Parliament Buildings",
    "formatted_address": "501 Belleville St., Victoria, BC V8V 2H2, Canada",
    "types": [
      "establishment",
      "point_of_interest",
      "tourist_attraction"
    ],
    "source": "geocoded",
    "description": "British Columbia Parliament Buildings"
  },
  "1557392107": {
    "lat": 41.8920906,
    "lng": 12.4864378,
    "extracted_address": "The Roman Forum",
    "formatted_address": "00186 Rome, Metropolitan City of Rome Capital, Italy",
    "types": [
      "establishment",
      "museum",
      "point_of_interest",
      "tourist_attraction"
    ],
    "source": "geocoded",
    "description": "The Roman Forum"
  },
  "3109247737": {
    "lat": 40.7579747,
    "lng": -73.9855426,
    "extracted_address": "Times Square",
    "formatted_address": "Manhattan, NY 10036, USA",
    "types": [
      "establishment",
      "point_of_interest",
      "tourist_attraction"
    ],
    "source": "geocoded",
    "description": "Times Square"
  },
  "748585499": {
    "lat": 51.5031864,
    "lng": -0.1195192,
    "extracted_address": "London Eye",
    "formatted_address": "Riverside Building, County Hall, Westminster Bridge Rd, London SE1 7PB, UK",
    "types": [
      "establishment",
      "point_of_interest",
      "tourist_attraction"
    ],
    "source": "geocoded",
    "description": "London Eye"
  },
  "2096637293": {
    "lat": 42.3550897,
    "lng": -71.0657256,
    "extracted_address": "Boston Common",
    "formatted_address": "Boston Common, 139 Tremont St, Boston, MA 02111, USA",
    "types": [
      "establishment",
      "park",
      "point_of_interest",
      "tourist_attraction"
    ],
    "source": "geocoded",
    "description": "Boston Common"
  },
  "8674311330": {
    "lat": 42.3767099,
    "lng": -71.1209014,
    "extracted_address": "Cambridge Common",
    "formatted_address": "Cambridge Common, Waterhouse St & Massachusetts Ave, Cambridge, MA 02138, USA",
    "types": [
      "establishment",
      "park",
      "point_of_interest",
      "tourist_attraction"
    ],
    "source": "geocoded",
    "description": "Cambridge Common"
  },
  "532386352": {
    "lat": 20.8800769,
    "lng": -156.5544368,
    "extracted_address": "\u02bb\u012aao Needle",
    "formatted_address": "Iao Valley, Hawaii 96793, USA",
    "types": [
      "establishment",
      "natural_feature"
    ],
    "source": "geocoded",
    "description": "\u02bb\u012aao Needle"
  },
  "13068369505": {
    "lat": 50.4019372,
    "lng": 10.0095542,
    "extracted_address": "Bischofsheim an der Rh\u00f6n, Bavaria, Germany \u2014 at the BraveheartBattle obstacle race.",
    "formatted_address": "97653 Bischofsheim in der Rh\u00f6n, Germany",
    "types": [
      "locality",
      "political"
    ],
    "source": "geocoded",
    "description": "BraveheartBattle"
  },
  "297192747": {
    "lat": -45.02850110000001,
    "lng": 168.6561937,
    "extracted_address": "Skyline Queenstown",
    "formatted_address": "53 Brecon Street, Queenstown 9300, New Zealand",
    "types": [
      "cafe",
      "establishment",
      "food",
      "point_of_interest",
      "tourist_attraction"
    ],
    "source": "geocoded",
    "description": "Skyline Queenstown"
  },
  "5271858025": {
    "lat": 50.1147374,
    "lng": 8.6749633,
    "extracted_address": "Apple Store on Gro\u00dfe Bockenheimer Stra\u00dfe (Fre\u00dfgass), Frankfurt am Main, Germany.",
    "formatted_address": "Gro\u00dfe Bockenheimer Str. 30, 60313 Frankfurt am Main, Germany",
    "types": [
      "electronics_store",
      "establishment",
      "point_of_interest",
      "store"
    ],
    "source": "geocoded",
    "description": "Apple Store"
  },
  "6331592414": {
    "lat": 41.89759859999999,
    "lng": 12.4984084,
    "extracted_address": "Basilica di Santa Maria Maggiore",
    "formatted_address": "P.za di Santa Maria Maggiore, 00100 Roma RM, Italy",
    "types": [
      "church",
      "establishment",
      "place_of_worship",
      "point_of_interest",
      "tourist_attraction"
    ],
    "source": "geocoded",
    "description": "Basilica di Santa Maria Maggiore"
  },
  "4337867861": {
    "lat": -34.6218351,
    "lng": -58.3713942,
    "extracted_address": "San Telmo",
    "formatted_address": "San Telmo, Buenos Aires, Argentina",
    "types": [
      "political",
      "sublocality",
      "sublocality_level_1"
    ],
    "source": "geocoded",
    "description": "San Telmo"
  },
  "4935592901": {
    "lat": 34.6872571,
    "lng": 135.5258546,
    "extracted_address": "Osaka Castle",
    "formatted_address": "1-1 \u014csakaj\u014d, Chuo Ward, Osaka, 540-0002, Japan",
    "types": [
      "establishment",
      "museum",
      "point_of_interest",
      "tourist_attraction"
    ],
    "source": "geocoded",
    "description": "Osaka Castle"
  },
  "143845164": {
    "lat": 18.9219841,
    "lng": 72.8346543,
    "extracted_address": "Gateway of India",
    "formatted_address": "Apollo Bandar, Colaba, Mumbai, Maharashtra, India",
    "types": [
      "establishment",
      "point_of_interest",
      "tourist_attraction"
    ],
    "source": "geocoded",
    "description": "Gateway of India"
  },
  "344883788": {
    "lat": 13.7756379,
    "lng": 100.543198,
    "extracted_address": "BTS Skytrain station",
    "formatted_address": "BTS Skytrain, Krung Thep Maha Nakhon, Thailand",
    "types": [
      "route"
    ],
    "source": "geocoded",
    "description": "BTS Skytrain station"
  },
  "356472264": {
    "lat": 33.873415,
    "lng": -115.9009923,
    "extracted_address": "Joshua Tree National Park",
    "formatted_address": "Joshua Tree National Park, California, USA",
    "types": [
      "establishment",
      "park",
      "point_of_interest",
      "tourist_attraction"
    ],
    "source": "geocoded",
    "description": "Joshua Tree National Park"
  },
  "10623520323": {
    "lat": 29.9355823,
    "lng": 52.88918169999999,
    "extracted_address": "Persepolis",
    "formatted_address": "Fars Province, Marvdasht, Persepolis street, Iran",
    "types": [
      "establishment",
      "museum",
      "point_of_interest",
      "tourist_attraction"
    ],
    "source": "geocoded",
    "description": "Persepolis"
  },
  "2689360364": {
    "lat": 38.291859,
    "lng": -122.4580356,
    "extracted_address": "Sonoma Valley",
    "formatted_address": "Sonoma, CA 95476, USA",
    "types": [
      "locality",
      "political"
    ],
    "source": "geocoded",
    "description": "Sonoma Valley"
  },
  "190003873": {
    "lat": 51.5180327,
    "lng": -0.1174446,
    "extracted_address": "London Underground (a Tube station in London, UK).",
    "formatted_address": "Templar House, High Holborn, London WC1V 6NU, UK",
    "types": [
      "establishment",
      "point_of_interest"
    ],
    "source": "geocoded",
    "description": "London Underground"
  },
  "3067729276": {
    "lat": 47.6050242,
    "lng": -122.3343709,
    "extracted_address": "Downtown Seattle",
    "formatted_address": "Downtown Seattle, Seattle, WA, USA",
    "types": [
      "neighborhood",
      "political"
    ],
    "source": "geocoded",
    "description": "Downtown Seattle"
  },
  "6869418052": {
    "lat": 26.1224386,
    "lng": -80.13731740000001,
    "extracted_address": "Fort Lauderdale",
    "formatted_address": "Fort Lauderdale, FL, USA",
    "types": [
      "locality",
      "political"
    ],
    "source": "geocoded",
    "description": "Fort Lauderdale"
  },
  "9672684353": {
    "lat": 47.6074272,
    "lng": -122.3708329,
    "extracted_address": "Elliott Bay",
    "formatted_address": "Elliott Bay, Seattle, WA, USA",
    "types": [
      "establishment",
      "natural_feature"
    ],
    "source": "geocoded",
    "description": "Elliott Bay"
  },
  "10594856076": {
    "lat": 36.4905655,
    "lng": -121.1824925,
    "extracted_address": "Pinnacles National Park",
    "formatted_address": "Pinnacles National Park, California 95043, USA",
    "types": [
      "establishment",
      "park",
      "point_of_interest",
      "tourist_attraction"
    ],
    "source": "geocoded",
    "description": "Pinnacles National Park"
  },
  "984664910": {
    "lat": 39.2866653,
    "lng": -76.61000489999999,
    "extracted_address": "Inner Harbour",
    "formatted_address": "Inner Harbor, Baltimore, MD, USA",
    "types": [
      "neighborhood",
      "political"
    ],
    "source": "geocoded",
    "description": "Inner Harbour"
  },
  "4659077680": {
    "lat": 35.1610807,
    "lng": -111.2792067,
    "extracted_address": "Twin Arrows Trading Post",
    "formatted_address": "Flagstaff, AZ 86004, USA",
    "types": [
      "establishment",
      "point_of_interest",
      "tourist_attraction"
    ],
    "source": "geocoded",
    "description": "Twin Arrows Trading Post"
  },
  "1320922094": {
    "lat": 47.7482524,
    "lng": -3.3702449,
    "extracted_address": "Lorient",
    "formatted_address": "56100 Lorient, France",
    "types": [
      "locality",
      "political"
    ],
    "source": "geocoded",
    "description": "Lorient"
  },
  "236575071": {
    "lat": 32.5638957,
    "lng": -116.5930121,
    "extracted_address": "American football stadium",
    "formatted_address": "21478 Tecate, Baja California, Mexico",
    "types": [
      "establishment",
      "point_of_interest",
      "stadium"
    ],
    "source": "geocoded",
    "description": "American football stadium"
  },
  "4794484965": {
    "lat": 38.6915837,
    "lng": -9.215977299999999,
    "extracted_address": "Bel\u00e9m Tower",
    "formatted_address": "Av. Bras\u00edlia, 1400-038 Lisboa, Portugal",
    "types": [
      "establishment",
      "point_of_interest",
      "tourist_attraction"
    ],
    "source": "geocoded",
    "description": "Bel\u00e9m Tower"
  },
  "8275994864": {
    "lat": 53.4779455,
    "lng": -2.2521461,
    "extracted_address": "Byrom Street",
    "formatted_address": "Byrom St, Manchester M3, UK",
    "types": [
      "route"
    ],
    "source": "geocoded",
    "description": "Byrom Street"
  },
  "4906549885": {
    "lat": 43.29514930382894,
    "lng": -5.112313748410719,
    "extracted_address": "Sella River",
    "formatted_address": "Sella River, Spain",
    "types": [
      "establishment",
      "natural_feature"
    ],
    "source": "geocoded",
    "description": "Sella River"
  },
  "161142762": {
    "lat": 40.75952720000001,
    "lng": -111.8870898,
    "extracted_address": "Salt Lake City and County Building",
    "formatted_address": "451 S State St, Salt Lake City, UT 84111, USA",
    "types": [
      "city_hall",
      "establishment",
      "local_government_office",
      "point_of_interest"
    ],
    "source": "geocoded",
    "description": "Salt Lake City and County Building"
  },
  "379419762": {
    "lat": 39.904211,
    "lng": 116.407395,
    "extracted_address": "Beijing, China \u2014 in a public park/square where locals gather to dance.",
    "formatted_address": "Beijing, China",
    "types": [
      "locality",
      "political"
    ],
    "source": "geocoded",
    "description": "public park/square"
  },
  "1087662996": {
    "lat": 17.4847697,
    "lng": -92.0458949,
    "extracted_address": "Palenque archaeological site",
    "formatted_address": "Carretera a Palenque- Zona Archaeologica Km. 8, 29960 Palenque, Chiapas, Mexico",
    "types": [
      "establishment",
      "point_of_interest",
      "tourist_attraction"
    ],
    "source": "geocoded",
    "description": "Palenque archaeological site"
  },
  "2425196729": {
    "lat": 60.16985569999999,
    "lng": 24.938379,
    "extracted_address": "Helsinki",
    "formatted_address": "Helsinki, Finland",
    "types": [
      "locality",
      "political"
    ],
    "source": "geocoded",
    "description": "Helsinki"
  },
  "283181248": {
    "lat": 31.8877842,
    "lng": -106.5685518,
    "extracted_address": "Parisian caf\u00e9",
    "formatted_address": "7451 Paseo del Norte, El Paso, TX 79911, USA",
    "types": [
      "bakery",
      "cafe",
      "establishment",
      "food",
      "point_of_interest",
      "restaurant",
      "store"
    ],
    "source": "geocoded",
    "description": "Parisian caf\u00e9"
  },
  "2122447423": {
    "lat": 33.8588552,
    "lng": -84.3114628,
    "extracted_address": "Merkato market",
    "formatted_address": "3946 Buford Hwy NE, Atlanta, GA 30345, USA",
    "types": [
      "convenience_store",
      "establishment",
      "food",
      "grocery_or_supermarket",
      "point_of_interest",
      "store"
    ],
    "source": "geocoded",
    "description": "Merkato market"
  },
  "1389846629": {
    "lat": 44.1327824,
    "lng": -87.5985499,
    "extracted_address": "Friends of Mariners Trail",
    "formatted_address": "Mariners Trail, Wisconsin, USA",
    "types": [
      "route"
    ],
    "source": "geocoded",
    "description": "Friends of Mariners Trail"
  },
  "2913584854": {
    "lat": 32.7872403,
    "lng": -106.3256816,
    "extracted_address": "White Sands National Park",
    "formatted_address": "White Sands National Park, New Mexico, USA",
    "types": [
      "establishment",
      "park",
      "point_of_interest",
      "tourist_attraction"
    ],
    "source": "geocoded",
    "description": "White Sands National Park"
  },
  "2908484353": {
    "lat": 36.204824,
    "lng": 138.252924,
    "extracted_address": "Japan \u2014 at a Shinto shrine/temple during a festival (likely a New Year event).",
    "formatted_address": "Japan",
    "types": [
      "country",
      "political"
    ],
    "source": "geocoded",
    "description": "Shinto shrine"
  },
  "8724971015": {
    "lat": 50.5277029,
    "lng": -3.5069955,
    "extracted_address": "South West Coast Path",
    "formatted_address": "S W Coast Path, United Kingdom",
    "types": [
      "route"
    ],
    "source": "geocoded",
    "description": "South West Coast Path"
  },
  "9156741088": {
    "lat": 43.8803357,
    "lng": -103.4537746,
    "extracted_address": "Mount Rushmore National Memorial",
    "formatted_address": "Mount Rushmore National Memorial, Keystone, SD 57751, USA",
    "types": [
      "establishment",
      "park",
      "point_of_interest",
      "tourist_attraction"
    ],
    "source": "geocoded",
    "description": "Mount Rushmore National Memorial"
  },
  "5864025794": {
    "lat": 35.1403086,
    "lng": -90.0548057,
    "extracted_address": "Beale Street",
    "formatted_address": "Beale St, Memphis, TN 38103, USA",
    "types": [
      "route"
    ],
    "source": "geocoded",
    "description": "Beale Street"
  },
  "864927630": {
    "lat": 48.8575475,
    "lng": 2.3513765,
    "extracted_address": "Paris, France \u2014 the bouquinistes\u2019 bookstalls along the River Seine.",
    "formatted_address": "Paris, France",
    "types": [
      "locality",
      "political"
    ],
    "source": "geocoded",
    "description": "bouquinistes\u2019 bookstalls"
  },
  "2400817474": {
    "lat": 36.91472220000001,
    "lng": -111.4558333,
    "extracted_address": "Page, Arizona",
    "formatted_address": "Page, AZ, USA",
    "types": [
      "locality",
      "political"
    ],
    "source": "geocoded",
    "description": "Page, Arizona"
  },
  "3578355376": {
    "lat": 36.5177696,
    "lng": -121.9446791,
    "extracted_address": "Point Lobos State Natural Reserve",
    "formatted_address": "Point Lobos State Natural Reserve, Carmel-By-The-Sea, CA 93923, USA",
    "types": [
      "establishment",
      "park",
      "point_of_interest",
      "tourist_attraction"
    ],
    "source": "geocoded",
    "description": "Point Lobos State Natural Reserve"
  },
  "5266802781": {
    "lat": 35.7771695,
    "lng": -78.64517579999999,
    "extracted_address": "Warehouse District",
    "formatted_address": "Warehouse District, Raleigh, NC, USA",
    "types": [
      "neighborhood",
      "political"
    ],
    "source": "geocoded",
    "description": "Warehouse District"
  },
  "2315275238": {
    "lat": 51.4584948,
    "lng": -2.5853424,
    "extracted_address": "Cabot Circus",
    "formatted_address": "Bond St S, Broadmead, Bristol BS1 3BD, UK",
    "types": [
      "establishment",
      "point_of_interest",
      "shopping_mall"
    ],
    "source": "geocoded",
    "description": "Cabot Circus"
  },
  "2500179023": {
    "lat": 34.055691,
    "lng": -118.2487702,
    "extracted_address": "Downtown Los Angeles",
    "formatted_address": "Downtown Los Angeles, Los Angeles, CA, USA",
    "types": [
      "neighborhood",
      "political"
    ],
    "source": "geocoded",
    "description": "Downtown Los Angeles"
  },
  "5895055568": {
    "lat": 48.8421045,
    "lng": 2.3551123,
    "extracted_address": "Grande Mosqu\u00e9e de Paris",
    "formatted_address": "2bis Pl. du Puits de l'Ermite, 75005 Paris, France",
    "types": [
      "establishment",
      "mosque",
      "place_of_worship",
      "point_of_interest",
      "tourist_attraction"
    ],
    "source": "geocoded",
    "description": "Grande Mosqu\u00e9e de Paris"
  },
  "7769217272": {
    "lat": 38.6011744,
    "lng": 20.5503374,
    "extracted_address": "Porto Katsiki Beach",
    "formatted_address": "Porto Katsiki, Greece",
    "types": [
      "establishment",
      "natural_feature"
    ],
    "source": "geocoded",
    "description": "Porto Katsiki Beach"
  },
  "4529830482": {
    "lat": 37.7846321,
    "lng": -122.4313039,
    "extracted_address": "Japantown",
    "formatted_address": "Japantown, San Francisco, CA, USA",
    "types": [
      "neighborhood",
      "political"
    ],
    "source": "geocoded",
    "description": "Japantown"
  },
  "11849940053": {
    "lat": 21.3647161,
    "lng": -157.949902,
    "extracted_address": "USS Arizona Memorial",
    "formatted_address": "1 Arizona Memorial Pl, Honolulu, HI 96818, USA",
    "types": [
      "establishment",
      "museum",
      "point_of_interest"
    ],
    "source": "geocoded",
    "description": "USS Arizona Memorial"
  },
  "257602406": {
    "lat": 42.3734467,
    "lng": -71.1165055,
    "extracted_address": "Widener Library",
    "formatted_address": "1 Harvard Yard, Cambridge, MA 02138, USA",
    "types": [
      "establishment",
      "library",
      "point_of_interest",
      "tourist_attraction"
    ],
    "source": "geocoded",
    "description": "Widener Library"
  },
  "5708965627": {
    "lat": 33.7900632,
    "lng": -84.38555199999999,
    "extracted_address": "High Museum of Art",
    "formatted_address": "1280 Peachtree Rd NE, Atlanta, GA 30309, USA",
    "types": [
      "establishment",
      "museum",
      "point_of_interest",
      "tourist_attraction"
    ],
    "source": "geocoded",
    "description": "High Museum of Art"
  },
  "7658341676": {
    "lat": 40.7143512,
    "lng": -74.0029927,
    "extracted_address": "Foley Square",
    "formatted_address": "Foley Square, Lafayette Street Worth Street, Centre St, New York, NY 10013, USA",
    "types": [
      "establishment",
      "park",
      "point_of_interest",
      "tourist_attraction"
    ],
    "source": "geocoded",
    "description": "Foley Square"
  },
  "2239196368": {
    "lat": 48.857487,
    "lng": 2.3401677,
    "extracted_address": "Square du Vert-Galant",
    "formatted_address": "Square du Vert-Galant, 15 Pl. du Pont Neuf, 75001 Paris, France",
    "types": [
      "establishment",
      "park",
      "point_of_interest",
      "tourist_attraction"
    ],
    "source": "geocoded",
    "description": "Square du Vert-Galant"
  },
  "9298901388": {
    "lat": 41.8990104,
    "lng": -87.6232416,
    "extracted_address": "360 Chicago",
    "formatted_address": "875 N Michigan Ave 94th floor, Chicago, IL 60611, USA",
    "types": [
      "bar",
      "establishment",
      "point_of_interest",
      "tourist_attraction"
    ],
    "source": "geocoded",
    "description": "360 Chicago"
  },
  "5998016760": {
    "lat": 25.165756,
    "lng": 121.5753508,
    "extracted_address": "Qingtiangang grassland",
    "formatted_address": "Qingtiangang Grassland, No. 246, Lane 101, Jingshan Rd, Shilin District, Taipei City, Taiwan 111",
    "types": [
      "establishment",
      "park",
      "point_of_interest"
    ],
    "source": "geocoded",
    "description": "Qingtiangang grassland"
  },
  "5773277714": {
    "lat": 40.4167321,
    "lng": -3.7032922,
    "extracted_address": "Puerta del Sol, Madrid, Spain.",
    "formatted_address": "Prta del Sol, Centro, Madrid, Spain",
    "types": [
      "route"
    ],
    "source": "geocoded",
    "description": "Puerta del Sol"
  },
  "3961389851": {
    "lat": 37.8199109,
    "lng": -122.4785598,
    "extracted_address": "Golden Gate Bridge",
    "formatted_address": "Golden Gate Bridge, Golden Gate Brg, San Francisco, CA, USA",
    "types": [
      "establishment",
      "point_of_interest",
      "tourist_attraction"
    ],
    "source": "geocoded",
    "description": "Golden Gate Bridge"
  },
  "6777722742": {
    "lat": 30.691178,
    "lng": -88.043914,
    "extracted_address": "Dauphin Street",
    "formatted_address": "Dauphin St, Mobile, AL, USA",
    "types": [
      "route"
    ],
    "source": "geocoded",
    "description": "Dauphin Street"
  },
  "6289798732": {
    "lat": 51.8673025,
    "lng": -2.2466683,
    "extracted_address": "Gloucester Cathedral",
    "formatted_address": "12 College Grn, Gloucester GL1 2LX, UK",
    "types": [
      "church",
      "establishment",
      "place_of_worship",
      "point_of_interest",
      "tourist_attraction"
    ],
    "source": "geocoded",
    "description": "Gloucester Cathedral"
  },
  "420254157": {
    "lat": 45.4252894,
    "lng": 12.3324601,
    "extracted_address": "Redentore vaporetto (waterbus) stop on Giudecca, Venice, Italy.",
    "formatted_address": "Giudecca, 194, 30133 Venezia VE, Italy",
    "types": [
      "church",
      "establishment",
      "place_of_worship",
      "point_of_interest",
      "tourist_attraction"
    ],
    "source": "geocoded",
    "description": "Redentore vaporetto stop"
  },
  "17850307": {
    "lat": 51.7547013,
    "lng": -1.2529521,
    "extracted_address": "Turf Tavern",
    "formatted_address": "4 Bath Pl, Oxford OX1 3SU, UK",
    "types": [
      "bar",
      "establishment",
      "food",
      "point_of_interest",
      "restaurant"
    ],
    "source": "geocoded",
    "description": "Turf Tavern"
  },
  "4642199948": {
    "lat": 35.6284713,
    "lng": 139.7387597,
    "extracted_address": "Shinagawa Station",
    "formatted_address": "Shinagawa Station, 3-ch\u014dme-26-27 Takanawa, Minato City, Tokyo 108-0074, Japan",
    "types": [
      "establishment",
      "point_of_interest",
      "train_station",
      "transit_station"
    ],
    "source": "geocoded",
    "description": "Shinagawa Station"
  },
  "4752588360": {
    "lat": 43.644334,
    "lng": -79.4180164,
    "extracted_address": "Queen Street West",
    "formatted_address": "Queen St W, Toronto, ON, Canada",
    "types": [
      "route"
    ],
    "source": "geocoded",
    "description": "Queen Street West"
  },
  "6994080662": {
    "lat": 42.3512193,
    "lng": -71.05976179999999,
    "extracted_address": "Chinatown gate",
    "formatted_address": "John F Fitzgerald Surface Rd &, Beach St, Boston, MA 02111, USA",
    "types": [
      "establishment",
      "point_of_interest",
      "tourist_attraction"
    ],
    "source": "geocoded",
    "description": "Chinatown gate"
  },
  "4353928082": {
    "lat": 40.7460436,
    "lng": -73.9802946,
    "extracted_address": "Murray Hill Diner",
    "formatted_address": "222 Lexington Ave, New York, NY 10016, USA",
    "types": [
      "establishment",
      "food",
      "meal_delivery",
      "meal_takeaway",
      "point_of_interest",
      "restaurant"
    ],
    "source": "geocoded",
    "description": "Murray Hill Diner"
  },
  "8307297352": {
    "lat": 27.4051915,
    "lng": 89.4210298,
    "extracted_address": "Paro International Airport",
    "formatted_address": "Paro International Airport, Airport Road Paro, Paro 12001, Bhutan",
    "types": [
      "airport",
      "establishment",
      "point_of_interest"
    ],
    "source": "geocoded",
    "description": "Paro International Airport"
  },
  "8996526755": {
    "lat": 36.5788857,
    "lng": 137.5995446,
    "extracted_address": "Murodo plateau",
    "formatted_address": "Murodo, Ashikuraji, Tateyama, Nakaniikawa District, Toyama 930-1406, Japan",
    "types": [
      "establishment",
      "natural_feature"
    ],
    "source": "geocoded",
    "description": "Murodo plateau"
  },
  "6370339539": {
    "lat": 51.85438449999999,
    "lng": -3.9356442,
    "extracted_address": "Carreg Cennen Castle",
    "formatted_address": "Trapp, Llandeilo SA19 6UA, UK",
    "types": [
      "establishment",
      "point_of_interest",
      "tourist_attraction"
    ],
    "source": "geocoded",
    "description": "Carreg Cennen Castle"
  },
  "3294449028": {
    "lat": 51.4919731,
    "lng": -0.6080658999999999,
    "extracted_address": "Lupton\u2019s Tower",
    "formatted_address": "Lupton's Tower, Baldwin's Shore, Windsor SL4 6DL, UK",
    "types": [
      "premise",
      "street_address"
    ],
    "source": "geocoded",
    "description": "Lupton\u2019s Tower"
  },
  "3376246863": {
    "lat": 40.7115786,
    "lng": -74.0158441,
    "extracted_address": "Battery Park City",
    "formatted_address": "Battery Park City, New York, NY, USA",
    "types": [
      "neighborhood",
      "political"
    ],
    "source": "geocoded",
    "description": "Battery Park City"
  },
  "2470840837": {
    "lat": 59.9336241,
    "lng": 30.3234245,
    "extracted_address": "Kazan Cathedral",
    "formatted_address": "Kazanskaya ploshchad, 2, Sankt-Peterburg, Russia, 191186",
    "types": [
      "church",
      "establishment",
      "place_of_worship",
      "point_of_interest",
      "tourist_attraction"
    ],
    "source": "geocoded",
    "description": "Kazan Cathedral"
  },
  "429919014": {
    "lat": 33.8120918,
    "lng": -117.9189742,
    "extracted_address": "Disneyland Park",
    "formatted_address": "Anaheim, CA 92802, USA",
    "types": [
      "amusement_park",
      "establishment",
      "point_of_interest",
      "tourist_attraction"
    ],
    "source": "geocoded",
    "description": "Disneyland Park"
  },
  "3085433029": {
    "lat": 40.7504817,
    "lng": -73.9882938,
    "extracted_address": "Macy\u2019s Herald Square",
    "formatted_address": "151 W 34th St., New York, NY 10001, USA",
    "types": [
      "clothing_store",
      "department_store",
      "establishment",
      "point_of_interest",
      "store"
    ],
    "source": "geocoded",
    "description": "Macy\u2019s Herald Square"
  },
  "9575757089": {
    "lat": 52.2365106,
    "lng": 21.0052525,
    "extracted_address": "Pr\u00f3\u017cna Street",
    "formatted_address": "Pr\u00f3\u017cna, 00-017 Warszawa, Poland",
    "types": [
      "route"
    ],
    "source": "geocoded",
    "description": "Pr\u00f3\u017cna Street"
  },
  "260406622": {
    "lat": 48.85837009999999,
    "lng": 2.2944813,
    "extracted_address": "Eiffel Tower",
    "formatted_address": "Av. Gustave Eiffel, 75007 Paris, France",
    "types": [
      "establishment",
      "point_of_interest",
      "tourist_attraction"
    ],
    "source": "geocoded",
    "description": "Eiffel Tower"
  },
  "3844296196": {
    "lat": 37.7938992,
    "lng": -122.2770632,
    "extracted_address": "Jack London/Produce District, Oakland, California, USA.",
    "formatted_address": "472 Water St, Oakland, CA 94607, USA",
    "types": [
      "establishment",
      "food",
      "lodging",
      "point_of_interest",
      "restaurant"
    ],
    "source": "geocoded",
    "description": "Jack London/Produce District"
  },
  "5631657949": {
    "lat": 48.8638995,
    "lng": 2.313559,
    "extracted_address": "Pont Alexandre III",
    "formatted_address": "Pont Alexandre III, Pont Alexandre III, 75008 Paris, France",
    "types": [
      "establishment",
      "point_of_interest",
      "tourist_attraction"
    ],
    "source": "geocoded",
    "description": "Pont Alexandre III"
  },
  "3775644661": {
    "lat": 38.892861,
    "lng": -77.0230716,
    "extracted_address": "The National Archives Building",
    "formatted_address": "700 Pennsylvania Ave NW, Washington, DC 20408, USA",
    "types": [
      "establishment",
      "point_of_interest"
    ],
    "source": "geocoded",
    "description": "The National Archives Building"
  },
  "1245625542": {
    "lat": 25.204757,
    "lng": 121.6896172,
    "extracted_address": "Yehliu Geopark",
    "formatted_address": "Yeliou, New Taipei City, Taiwan",
    "types": [
      "colloquial_area",
      "political"
    ],
    "source": "geocoded",
    "description": "Yehliu Geopark"
  },
  "3807425944": {
    "lat": 35.6764225,
    "lng": 139.650027,
    "extracted_address": "Tokyo",
    "formatted_address": "Tokyo, Japan",
    "types": [
      "administrative_area_level_1",
      "political"
    ],
    "source": "geocoded",
    "description": "Tokyo"
  },
  "6326003739": {
    "lat": 39.9486222,
    "lng": -75.1494434,
    "extracted_address": "Philosophical Hall",
    "formatted_address": "104 S 5th St, Philadelphia, PA 19106, USA",
    "types": [
      "establishment",
      "library",
      "museum",
      "point_of_interest",
      "tourist_attraction"
    ],
    "source": "geocoded",
    "description": "Philosophical Hall"
  },